timestamp,ack,rssi,snr,fc_unix_time_usec,fc_boot_time_ms,gps_lat,gps_lon,gps_alt,gps_speed,gps_time,abs_pressure1,temperature1,altitude1_empty,abs_pressure2,temperature2,altitude1,sd_status,actuator_status,logging_active,write_rate,space_left,pix_unix_time_usec,pix_boot_time_ms,vibe_x,vibe_y,vibe_z,clip_x,clip_y,clip_z,gps_bearing,gps_bearing_magnetic,gps_bearing_true,gps_bearing_ground_speed,gps_bearing_ground_speed_magnetic,gps_bearing_ground_speed_true,photodiode_value1,photodiode_value2,fc_battery_voltage,led_battery_voltage
21:41:09.796,0,-34,11,,822080,45.862862,-73.592636,54.5,0.15,1753321267,,,,101341.03,48.48,-1.34,1,0,0,0,0,,12280,,,,,,,0.0,4.0,,,,,200,14,7.92,12.6
21:41:11.657,0,-34,11,,823941,45.862858,-73.592636,54.33,0.15,1753321269,,,,101341.85,48.49,-1.4,1,0,0,0,0,,12280,,,,,,,0.0,4.0,,,,,201,13,7.92,12.6
21:41:13.518,0,-33,12,,825802,45.862858,-73.592628,53.69,0.43,1753321271,,,,101340.8,48.5,-1.32,1,0,0,0,0,,12280,,,,,,,0.0,4.0,,,,,201,12,7.92,12.6
21:41:15.462,0,-31,12,,827663,45.862858,-73.592628,53.64,0.33,1753321272,,,,101342.88,48.51,-1.49,1,0,0,0,0,,12280,,,,,,,0.0,3.0,,,,,201,10,7.92,12.6
21:41:17.323,0,-34,11,,829524,45.862858,-73.592628,54.04,0.19,1753321274,,,,101344.69,48.52,-1.64,1,0,0,0,0,,12280,,,,,,,0.0,3.0,,,,,200,13,7.92,12.6
21:41:19.101,0,-32,12,,831385,45.862858,-73.592628,53.73,0.24,1753321276,,,,101337.08,48.52,-1.0,1,0,0,0,0,,12280,,,,,,,0.0,2.0,,,,,201,12,7.92,12.6
21:41:20.962,0,-34,11,,833246,45.862858,-73.592628,53.67,0.04,1753321278,,,,101340.8,48.53,-1.32,1,0,0,0,0,,12280,,,,,,,0.0,2.0,,,,,201,14,7.92,12.6
21:41:22.823,0,-32,11,,835107,45.862858,-73.592628,53.91,0.09,1753321280,,,,101340.22,48.54,-1.27,1,0,0,0,0,,12280,,,,,,,0.0,2.0,,,,,201,13,7.92,12.6
21:41:24.673,0,-35,6,,836968,45.862858,-73.592628,54.0,0.21,1753321282,,,,101340.19,48.55,-1.26,1,0,0,0,0,,12280,,,,,,,0.0,2.0,,,,,200,13,7.92,12.6
21:41:26.526,0,-34,11,,838809,45.862854,-73.592621,53.95,0.13,1753321284,,,,101340.5,48.56,-1.29,1,0,0,0,0,,12280,,,,,,,0.0,1.0,,,,,200,13,7.92,12.6
21:41:28.471,0,-33,12,,840670,45.862858,-73.592628,53.84,0.1,1753321285,,,,101341.55,48.57,-1.38,1,0,0,0,0,,12280,,,,,,,0.0,1.0,,,,,200,13,7.92,12.6
21:41:30.253,0,-32,12,,842531,45.862854,-73.592628,53.87,0.18,1753321287,,,,101343.77,48.58,-1.56,1,0,0,0,0,,12280,,,,,,,0.0,1.0,,,,,201,12,7.92,12.6
21:41:32.108,0,-31,12,,844392,45.862854,-73.592628,54.19,0.12,1753321289,,,,101342.45,48.58,-1.45,1,0,0,0,0,,12280,,,,,,,0.0,1.0,,,,,201,13,7.92,12.6
21:41:33.969,0,-33,12,,846253,45.862854,-73.592628,54.17,0.25,1753321291,,,,101342.12,48.6,-1.43,1,0,0,0,0,,12280,,,,,,,0.0,1.0,,,,,201,13,7.92,12.6
21:41:35.830,0,-34,12,,848114,45.86285,-73.592628,53.87,0.35,1753321293,,,,101341.07,48.6,-1.34,1,0,0,0,0,,12280,,,,,,,0.0,1.0,,,,,199,13,7.92,12.6
21:41:37.691,0,-32,12,,849975,45.862846,-73.592621,53.99,0.32,1753321295,,,,101343.02,48.61,-1.5,1,0,0,0,0,,12280,,,,,,,0.0,1.0,,,,,200,13,7.92,12.6
21:41:39.563,0,-42,11,,851836,45.862846,-73.592621,53.98,0.08,1753321297,,,,101342.44,48.62,-1.45,1,0,0,0,0,,12280,,,,,,,0.0,0.0,,,,,201,13,7.92,12.6
21:41:41.414,0,-42,12,,853697,45.86285,-73.592621,53.73,0.07,1753321298,,,,101341.9,48.63,-1.41,1,0,0,0,0,,12280,,,,,,,0.0,0.0,,,,,201,14,7.92,12.6
21:41:43.287,0,-44,11,,855558,45.862846,-73.592613,55.04,0.04,1753321300,,,,101344.73,48.64,-1.64,1,0,0,0,0,,12280,,,,,,,0.0,0.0,,,,,201,14,7.92,12.6
21:41:45.154,0,-42,12,,857419,45.862843,-73.592613,54.87,0.24,1753321302,,,,101347.03,48.66,-1.83,1,0,0,0,0,,12280,,,,,,,0.0,0.0,,,,,201,12,7.92,12.6
21:41:47.039,0,-44,12,,859280,45.862846,-73.592621,54.01,0.17,1753321304,,,,101340.88,48.66,-1.32,1,0,0,0,0,,12280,,,,,,,0.0,0.0,,,,,201,12,7.92,12.6
21:41:48.905,0,-43,12,,861141,45.862843,-73.592621,54.06,0.24,1753321306,,,,101343.62,48.67,-1.55,1,0,0,0,0,,12280,,,,,,,0.0,0.0,,,,,201,13,7.92,12.6
21:41:50.773,0,-43,12,,863002,45.862846,-73.592613,54.6,0.17,1753321308,,,,101345.58,48.68,-1.71,1,0,0,0,0,,12280,,,,,,,0.0,0.0,,,,,200,13,7.92,12.6
21:41:52.641,0,-43,12,,864863,45.862846,-73.592613,54.97,0.1,1753321310,,,,101344.02,48.68,-1.59,1,0,0,0,0,,12280,,,,,,,0.0,0.0,,,,,201,13,7.92,12.6
21:41:54.503,0,-43,12,,866724,45.862846,-73.592613,54.15,0.03,1753321311,,,,101346.75,48.7,-1.81,1,0,0,0,0,,12280,,,,,,,0.0,0.0,,,,,202,11,7.92,12.6
21:41:56.299,0,-42,11,,868585,45.862846,-73.592621,55.42,0.06,1753321313,,,,101344.77,48.71,-1.64,1,0,0,0,0,,12280,,,,,,,0.0,0.0,,,,,201,13,7.92,12.6
21:41:58.236,0,-40,11,,870446,45.862846,-73.592621,55.4,0.12,1753321315,,,,101340.01,48.71,-1.25,1,0,0,0,0,,12280,,,,,,,0.0,0.0,,,,,201,13,7.92,12.6
21:42:00.024,0,-41,12,,872307,45.862846,-73.592621,54.5,0.07,1753321317,,,,101344.55,48.72,-1.63,1,0,0,0,0,,12280,,,,,,,0.0,1.0,,,,,200,12,7.92,12.6
21:42:01.885,0,-41,12,,874168,45.862846,-73.592621,55.9,0.22,1753321319,,,,101342.31,48.72,-1.44,1,0,0,0,0,,12280,,,,,,,0.0,0.0,,,,,200,13,7.92,12.6
21:42:03.753,0,-40,11,,876029,45.862843,-73.592628,56.33,0.49,1753321321,,,,101341.41,48.73,-1.37,1,0,0,0,0,,12280,,,,,,,0.0,0.0,,,,,133,12,7.92,12.6
21:42:05.651,0,-45,10,,877890,45.862843,-73.592628,54.97,0.42,1753321323,,,,101343.23,48.74,-1.52,1,0,0,0,0,,12280,,,,,,,0.0,0.0,,,,,32,14,7.92,12.6
21:42:07.493,0,-43,11,,879731,45.862843,-73.592628,55.23,0.71,1753321324,,,,101346.19,48.75,-1.77,1,0,0,0,0,,12280,,,,,,,0.0,0.0,,,,,19,14,7.92,12.6
21:42:09.356,0,-42,12,,881572,45.862839,-73.592628,57.75,0.35,1753321326,,,,101345.46,48.77,-1.7,1,0,0,0,0,,12280,,,,,,,0.0,357.0,,,,,16,12,7.92,12.6
21:42:11.150,0,-41,12,,883433,45.862835,-73.592628,57.99,0.38,1753321328,,,,101343.2,48.76,-1.52,1,0,0,0,0,,12280,,,,,,,0.0,357.0,,,,,21,12,7.92,12.6
21:42:13.011,0,-41,12,,885294,45.862835,-73.592636,55.99,0.28,1753321330,,,,101342.07,48.77,-1.42,1,0,0,0,0,,12280,,,,,,,0.0,344.0,,,,,16,13,7.92,12.6
21:42:14.872,0,-41,12,,887155,45.862827,-73.592628,56.49,3.36,1753321332,,,,101339.33,48.78,-1.19,1,0,0,0,0,,12280,,,,,,,0.0,302.0,,,,,15,14,7.92,12.6
21:42:16.733,0,-42,12,,889016,45.862827,-73.592628,59.31,0.91,1753321334,,,,101346.73,48.8,-1.81,1,0,0,0,0,,12280,,,,,,,0.0,251.0,,,,,16,12,7.92,12.6
21:42:18.595,0,-41,12,,890877,45.862827,-73.592628,56.75,0.37,1753321336,,,,101343.66,48.8,-1.55,1,0,0,0,0,,12280,,,,,,,0.0,251.0,,,,,17,12,7.92,12.6
21:42:20.456,0,-16,12,,892738,45.862831,-73.592636,56.99,0.75,1753321337,,,,101342.45,48.81,-1.45,1,0,0,0,0,,12280,,,,,,,0.0,165.0,,,,,15,13,7.92,12.6
21:42:22.308,0,-12,11,,894599,45.862835,-73.592636,58.85,0.74,1753321339,,,,101342.32,48.81,-1.44,1,0,0,0,0,,12280,,,,,,,0.0,190.0,,,,,16,14,7.92,12.6
21:42:24.178,0,-29,12,,896460,45.862835,-73.592644,58.39,1.09,1753321341,,,,101342.21,48.82,-1.43,1,0,0,0,0,,12280,,,,,,,0.0,221.0,,,,,17,16,7.92,12.6
21:42:26.039,0,-37,12,,898321,45.862846,-73.592636,56.9,1.25,1753321343,,,,101345.94,48.83,-1.74,1,0,0,0,0,,12280,,,,,,,0.0,291.0,,,,,17,13,7.92,12.6
21:42:27.915,0,-25,11,,900182,45.862839,-73.592644,57.78,1.45,1753321345,,,,101341.35,48.84,-1.36,1,0,0,0,0,,12280,,,,,,,0.0,288.0,,,,,17,14,7.92,12.6
21:42:29.773,0,-28,10,,902043,45.862839,-73.592636,57.24,1.71,1753321347,,,,101343.82,48.85,-1.56,1,0,0,0,0,,12280,,,,,,,0.0,288.0,,,,,16,13,7.92,12.6
21:42:31.629,0,-33,3,,903904,45.862839,-73.592628,56.02,1.96,1753321349,,,,101342.23,48.85,-1.44,1,0,0,0,0,,12280,,,,,,,0.0,288.0,,,,,16,12,7.92,12.6
21:42:33.509,0,-31,12,,905765,45.862843,-73.592628,55.32,0.46,1753321351,,,,101343.12,48.87,-1.51,1,0,0,0,0,,12280,,,,,,,0.0,288.0,,,,,15,13,7.91,12.6
21:42:35.371,0,-33,11,,907626,45.862843,-73.592628,54.46,0.53,1753321352,,,,101344.58,48.88,-1.63,1,0,0,0,0,,12280,,,,,,,0.0,288.0,,,,,17,13,7.92,12.6
21:42:37.247,0,-32,11,,909487,45.862835,-73.592636,56.5,0.82,1753321354,,,,101340.4,48.88,-1.28,1,0,0,0,0,,12280,,,,,,,0.0,288.0,,,,,16,12,7.92,12.6
21:42:39.104,0,-32,10,,911348,45.862831,-73.592636,56.51,1.22,1753321356,,,,101342.45,48.89,-1.45,1,0,0,0,0,,12280,,,,,,,0.0,288.0,,,,,14,13,7.92,12.6
21:42:40.998,0,-32,11,,913209,45.862843,-73.592636,52.87,0.6,1753321358,,,,101343.37,48.91,-1.53,1,0,0,0,0,,12280,,,,,,,0.0,288.0,,,,,15,12,7.92,12.6
21:42:42.788,0,-33,9,,915070,45.862843,-73.592636,55.33,0.34,1753321360,,,,101344.23,48.91,-1.6,1,0,0,0,0,,12280,,,,,,,0.0,287.0,,,,,16,14,7.92,12.6
21:42:44.649,0,-32,9,,916931,45.862839,-73.592636,54.86,0.4,1753321362,,,,101341.79,48.91,-1.4,1,0,0,0,0,,12280,,,,,,,0.0,287.0,,,,,16,14,7.92,12.6
21:42:46.574,0,-32,10,,918792,45.862846,-73.592636,51.87,0.04,1753321364,,,,101345.26,48.93,-1.69,1,0,0,0,0,,12280,,,,,,,0.0,287.0,,,,,16,12,7.91,12.6
21:42:48.372,0,-32,12,,920653,45.862846,-73.592636,54.13,0.05,1753321365,,,,101347.69,48.94,-1.89,1,0,0,0,0,,12280,,,,,,,0.0,287.0,,,,,18,10,7.91,12.6
21:42:50.272,0,-32,10,,922514,45.862846,-73.592636,53.89,0.16,1753321367,,,,101346.83,48.96,-1.82,1,0,0,0,0,,12280,,,,,,,0.0,287.0,,,,,16,13,7.91,12.6
21:42:52.124,0,-32,8,,924375,45.862846,-73.592636,51.73,0.07,1753321369,,,,101345.53,48.96,-1.71,1,0,0,0,0,,12280,,,,,,,0.0,287.0,,,,,16,12,7.92,12.6
21:42:54.006,0,-32,11,,926236,45.862846,-73.592644,51.48,0.35,1753321371,,,,101345.81,48.97,-1.73,1,0,0,0,0,,12280,,,,,,,0.0,287.0,,,,,15,12,7.91,12.6
21:42:55.872,0,-32,11,,928097,45.862846,-73.592644,53.18,0.2,1753321373,,,,101343.35,48.98,-1.53,1,0,0,0,0,,12280,,,,,,,0.0,287.0,,,,,16,12,7.92,12.6
21:42:57.734,0,-33,11,,929958,45.862846,-73.592644,51.19,0.37,1753321375,,,,101346.59,48.99,-1.8,1,0,0,0,0,,12280,,,,,,,0.0,287.0,,,,,16,12,7.91,12.6
21:42:59.603,0,-31,12,,931819,45.862846,-73.592636,50.42,0.2,1753321377,,,,101342.05,48.99,-1.42,1,0,0,0,0,,12280,,,,,,,0.0,287.0,,,,,16,12,7.92,12.6
21:43:01.399,0,-32,9,,933680,45.862846,-73.592644,52.49,0.23,1753321378,,,,101349.19,49.01,-2.01,1,0,0,0,0,,12280,,,,,,,0.0,287.0,,,,,15,14,7.91,12.6
21:43:03.333,0,-32,11,,935541,45.862846,-73.592644,52.19,0.12,1753321380,,,,101346.11,49.02,-1.76,1,0,0,0,0,,12280,,,,,,,0.0,287.0,,,,,200,12,7.92,12.6
21:43:05.122,0,-32,10,,937403,45.862843,-73.592644,49.46,0.04,1753321382,,,,101344.72,49.03,-1.64,1,0,0,0,0,,12280,,,,,,,0.0,287.0,,,,,201,13,7.91,12.6
21:43:06.984,0,-32,12,,939265,45.862843,-73.592644,51.6,0.17,1753321384,,,,101344.41,49.04,-1.62,1,0,0,0,0,,12280,,,,,,,0.0,287.0,,,,,201,12,7.91,12.6
21:43:08.852,0,-32,11,,941127,45.862843,-73.592644,51.38,0.09,1753321386,,,,101345.04,49.05,-1.67,1,0,0,0,0,,12280,,,,,,,0.0,287.0,,,,,200,13,7.91,12.6
21:43:10.715,0,-32,11,,942989,45.862839,-73.592644,50.04,0.21,1753321388,,,,101343.25,49.06,-1.52,1,0,0,0,0,,12280,,,,,,,0.0,287.0,,,,,199,12,7.91,12.6
21:43:12.586,0,-32,10,,944851,45.862835,-73.592636,51.06,0.53,1753321390,,,,101344.7,49.06,-1.64,1,0,0,0,0,,12280,,,,,,,0.0,287.0,,,,,202,13,7.91,12.6
21:43:14.478,0,-33,10,,946713,45.862835,-73.592636,50.81,0.43,1753321391,,,,101345.38,49.08,-1.7,1,0,0,0,0,,12280,,,,,,,0.0,287.0,,,,,200,14,7.91,12.6
21:43:16.332,0,-32,11,,948575,45.862827,-73.592636,48.35,0.7,1753321393,,,,101344.98,49.08,-1.66,1,0,0,0,0,,12280,,,,,,,0.0,287.0,,,,,200,13,7.91,12.6
21:43:18.209,0,-32,10,,950437,45.862827,-73.592636,48.57,0.49,1753321395,,,,101344.78,49.09,-1.65,1,0,0,0,0,,12280,,,,,,,0.0,287.0,,,,,200,14,7.91,12.6
21:43:20.044,0,-32,12,,952299,45.862827,-73.592636,49.95,0.22,1753321397,,,,101343.23,49.09,-1.52,1,0,0,0,0,,12280,,,,,,,0.0,287.0,,,,,201,9,7.91,12.6
21:43:21.928,0,-32,11,,954160,45.862827,-73.592628,49.72,0.05,1753321399,,,,101345.11,49.11,-1.68,1,0,0,0,0,,12280,,,,,,,0.0,287.0,,,,,201,12,7.91,12.6
21:43:23.792,0,-32,11,,956021,45.862835,-73.592636,47.68,0.1,1753321401,,,,101345.83,49.12,-1.73,1,0,0,0,0,,12280,,,,,,,0.0,287.0,,,,,201,13,7.91,12.6
21:43:25.675,0,-32,10,,957883,45.862827,-73.592628,49.2,0.26,1753321403,,,,101344.79,49.12,-1.65,1,0,0,0,0,,12280,,,,,,,0.0,287.0,,,,,202,12,7.91,12.6
21:43:27.545,0,-32,11,,959745,45.862831,-73.592628,48.95,0.04,1753321404,,,,101344.84,49.13,-1.65,1,0,0,0,0,,12280,,,,,,,0.0,287.0,,,,,201,14,7.91,12.6
21:43:29.411,0,-32,12,,961607,45.862831,-73.592636,47.21,0.08,1753321406,,,,101345.97,49.13,-1.74,1,0,0,0,0,,12280,,,,,,,0.0,287.0,,,,,200,13,7.91,12.6
21:43:31.257,0,-31,11,,963469,45.862831,-73.592628,48.44,0.18,1753321408,,,,101345.84,49.15,-1.73,1,0,0,0,0,,12280,,,,,,,0.0,287.0,,,,,202,13,7.91,12.6
21:43:33.118,0,-32,11,,965331,45.862831,-73.592628,48.22,0.09,1753321410,,,,101343.55,49.15,-1.54,1,0,0,0,0,,12280,,,,,,,0.0,287.0,,,,,201,13,7.91,12.6
21:43:34.976,0,-32,11,,967193,45.862831,-73.592628,46.7,0.06,1753321412,,,,101344.0,49.15,-1.58,1,0,0,0,0,,12280,,,,,,,0.0,287.0,,,,,201,12,7.91,12.6
21:43:36.832,0,-32,11,,969055,45.862831,-73.592628,47.84,0.02,1753321414,,,,101347.73,49.17,-1.89,1,0,0,0,0,,12280,,,,,,,0.0,287.0,,,,,201,13,7.91,12.6
21:43:38.708,0,-32,12,,970917,45.862835,-73.592628,47.81,0.25,1753321416,,,,101345.77,49.17,-1.73,1,0,0,0,0,,12280,,,,,,,0.0,287.0,,,,,201,11,7.91,12.6
21:43:40.572,0,-32,11,,972778,45.862839,-73.592636,47.51,0.25,1753321418,,,,101344.04,49.18,-1.59,1,0,0,0,0,,12280,,,,,,,0.0,287.0,,,,,200,13,7.91,12.6
21:43:42.428,0,-32,11,,974640,45.862839,-73.592636,47.41,0.33,1753321419,,,,101347.58,49.19,-1.88,1,0,0,0,0,,12280,,,,,,,0.0,287.0,,,,,200,13,7.91,12.6
21:43:44.301,0,-33,11,,976502,45.862839,-73.592636,47.73,0.22,1753321421,,,,101344.72,49.19,-1.64,1,0,0,0,0,,12280,,,,,,,0.0,287.0,,,,,200,13,7.91,12.6
21:43:46.158,0,-32,10,,978364,45.862839,-73.592636,47.57,0.01,1753321423,,,,101345.45,49.2,-1.7,1,0,0,0,0,,12280,,,,,,,0.0,287.0,,,,,200,13,7.91,12.6
21:43:48.021,0,-32,11,,980225,45.862846,-73.592628,46.67,0.09,1753321425,,,,101344.36,49.21,-1.61,1,0,0,0,0,,12280,,,,,,,0.0,287.0,,,,,200,14,7.91,12.6
21:43:49.872,0,-32,12,,982087,45.862843,-73.592628,47.16,0.13,1753321427,,,,101346.66,49.22,-1.8,1,0,0,0,0,,12280,,,,,,,0.0,287.0,,,,,201,13,7.91,12.6
21:43:55.155,0,-32,11,,987372,45.862846,-73.592636,47.92,0.2,1753321432,,,,101344.93,49.23,-1.66,1,0,0,0,0,,12280,,,,,,,0.0,287.0,,,,,201,13,7.92,12.6
21:43:57.024,0,-32,11,,989234,45.862846,-73.592628,47.52,0.31,1753321434,,,,101346.97,49.24,-1.83,1,0,0,0,0,,12280,,,,,,,0.0,287.0,,,,,200,13,7.91,12.6
21:43:58.879,0,-32,11,,991096,45.862843,-73.592628,47.08,0.25,1753321436,,,,101347.54,49.25,-1.88,1,0,0,0,0,,12280,,,,,,,0.0,287.0,,,,,200,13,7.91,12.6
21:44:00.679,0,-32,11,,992958,45.862843,-73.592628,47.03,0.21,1753321438,,,,101344.97,49.26,-1.66,1,0,0,0,0,,12280,,,,,,,0.0,287.0,,,,,200,13,7.91,12.6
21:44:02.540,0,-32,11,,994819,45.862846,-73.592621,47.0,0.16,1753321440,,,,101346.03,49.26,-1.75,1,0,0,0,0,,12280,,,,,,,0.0,287.0,,,,,189,13,7.91,12.6
21:44:04.402,0,-32,11,,996681,45.862846,-73.592621,46.96,0.27,1753321441,,,,101348.41,49.27,-1.95,1,0,0,0,0,,12280,,,,,,,0.0,287.0,,,,,39,14,7.91,12.6
21:44:06.273,0,-32,9,,998542,45.862846,-73.592621,47.03,0.24,1753321443,,,,101344.8,49.28,-1.65,1,0,0,0,0,,12280,,,,,,,0.0,287.0,,,,,18,13,7.91,12.6
21:44:08.123,0,-32,9,,1000403,45.862846,-73.592613,48.06,0.22,1753321445,,,,101345.75,49.28,-1.73,1,0,0,0,0,,12280,,,,,,,0.0,287.0,,,,,17,11,7.91,12.6
21:44:09.986,0,-32,8,,1002264,45.862846,-73.592613,47.27,0.15,1753321447,,,,101347.97,49.3,-1.91,1,0,0,0,0,,12280,,,,,,,0.0,287.0,,,,,18,14,7.91,12.6
21:44:11.845,0,-32,10,,1004125,45.862846,-73.592613,47.42,0.17,1753321449,,,,101343.86,49.3,-1.57,1,0,0,0,0,,12280,,,,,,,0.0,287.0,,,,,18,13,7.91,12.6
21:44:13.708,0,-32,11,,1005987,45.862846,-73.592613,49.48,0.03,1753321451,,,,101346.81,49.31,-1.82,1,0,0,0,0,,12280,,,,,,,0.0,287.0,,,,,17,13,7.91,12.6
21:44:15.568,0,-32,8,,1007848,45.862846,-73.592613,47.81,0.23,1753321453,,,,101347.4,49.32,-1.87,1,0,0,0,0,,12280,,,,,,,0.0,287.0,,,,,17,10,7.91,12.6
21:44:17.435,0,-32,7,,1009709,45.862846,-73.592613,47.83,0.36,1753321454,,,,101347.39,49.34,-1.87,1,0,0,0,0,,12280,,,,,,,0.0,287.0,,,,,17,11,7.91,12.6
21:44:19.291,0,-32,10,,1011570,45.862846,-73.592613,48.41,0.16,1753321456,,,,101343.57,49.33,-1.54,1,0,0,0,0,,12280,,,,,,,0.0,287.0,,,,,16,13,7.91,12.6
21:44:21.160,0,-32,9,,1013432,45.862843,-73.592613,47.95,0.19,1753321458,,,,101347.06,49.35,-1.84,1,0,0,0,0,,12280,,,,,,,0.0,287.0,,,,,15,12,7.91,12.6
21:44:23.023,0,-32,9,,1015293,45.862843,-73.592613,47.6,0.1,1753321460,,,,101351.76,49.37,-2.22,1,0,0,0,0,,12280,,,,,,,0.0,287.0,,,,,17,16,7.91,12.6
21:44:24.880,0,-32,5,,1017154,45.862839,-73.592613,47.53,0.44,1753321462,,,,101348.2,49.36,-1.93,1,0,0,0,0,,12280,,,,,,,0.0,287.0,,,,,16,13,7.91,12.6
21:44:26.736,0,-32,9,,1019015,45.862827,-73.592621,47.59,0.4,1753321464,,,,101349.15,49.37,-2.01,1,0,0,0,0,,12280,,,,,,,0.0,287.0,,,,,16,12,7.91,12.6
21:44:28.601,0,-32,11,,1020876,45.862835,-73.592621,47.43,0.43,1753321466,,,,101345.27,49.38,-1.69,1,0,0,0,0,,12280,,,,,,,0.0,287.0,,,,,16,12,7.91,12.6
21:44:30.480,0,-39,11,,1022738,45.862823,-73.592621,47.07,0.48,1753321467,,,,101347.77,49.38,-1.9,1,0,0,0,0,,12280,,,,,,,0.0,287.0,,,,,16,13,7.91,12.6
21:44:32.357,0,-19,12,,1024600,45.862823,-73.592621,46.42,0.54,1753321469,,,,101347.9,49.4,-1.91,1,0,0,0,0,,12280,,,,,,,0.0,287.0,,,,,16,15,7.91,12.6
21:44:34.233,0,-18,10,,1026462,45.862823,-73.592621,46.58,0.59,1753321471,,,,101344.1,49.4,-1.59,1,0,0,0,0,,12280,,,,,,,0.0,287.0,,,,,15,12,7.91,12.6
21:44:36.085,0,-33,11,,1028323,45.862827,-73.592621,47.38,0.26,1753321473,,,,101344.8,49.4,-1.65,1,0,0,0,0,,12280,,,,,,,0.0,287.0,,,,,16,10,7.91,12.6
21:44:37.965,0,-32,6,,1030185,45.862827,-73.592621,47.65,0.08,1753321475,,,,101345.52,49.41,-1.71,1,0,0,0,0,,12280,,,,,,,0.0,287.0,,,,,16,13,7.91,12.6
21:44:39.827,0,-32,6,,1032046,45.862827,-73.592621,47.47,0.26,1753321477,,,,101342.38,49.42,-1.45,1,0,0,0,0,,12280,,,,,,,0.0,287.0,,,,,16,12,7.91,12.6
21:44:41.690,0,-37,11,,1033907,45.862831,-73.592628,47.5,0.68,1753321479,,,,101343.62,49.42,-1.55,1,0,0,0,0,,12280,,,,,,,0.0,287.0,,,,,17,13,7.91,12.6
21:44:43.555,0,-33,7,,1035769,45.862835,-73.592628,47.43,0.44,1753321481,,,,101344.39,49.44,-1.61,1,0,0,0,0,,12280,,,,,,,0.0,287.0,,,,,16,14,7.91,12.6
21:44:45.351,0,-36,4,,1037630,45.862835,-73.592628,47.53,0.34,1753321482,,,,101344.94,49.45,-1.66,1,0,0,0,0,,12280,,,,,,,0.0,287.0,,,,,17,12,7.91,12.6
21:44:47.200,0,-32,3,,1039491,45.862835,-73.592628,47.42,0.17,1753321484,,,,101343.61,49.46,-1.55,1,0,0,0,0,,12280,,,,,,,0.0,287.0,,,,,17,13,7.91,12.6
21:44:49.073,0,-29,5,,1041352,45.862835,-73.592628,47.43,0.15,1753321486,,,,101345.98,49.46,-1.75,1,0,0,0,0,,12280,,,,,,,0.0,287.0,,,,,17,13,7.91,12.6
21:44:50.998,0,-32,5,,1043213,45.862843,-73.592636,47.58,0.07,1753321488,,,,101345.09,49.46,-1.67,1,0,0,0,0,,12280,,,,,,,0.0,287.0,,,,,16,12,7.91,12.6
21:44:52.788,0,-32,4,,1045074,45.862843,-73.592628,47.45,0.18,1753321490,,,,101344.73,49.47,-1.64,1,0,0,0,0,,12280,,,,,,,0.0,287.0,,,,,17,13,7.91,12.6
21:44:54.657,0,-33,4,,1046935,45.862843,-73.592628,47.4,0.08,1753321492,,,,101344.31,49.48,-1.61,1,0,0,0,0,,12280,,,,,,,0.0,287.0,,,,,15,12,7.91,12.6
21:44:56.517,0,-33,6,,1048796,45.862846,-73.592636,47.31,0.29,1753321494,,,,101343.11,49.48,-1.51,1,0,0,0,0,,12280,,,,,,,0.0,287.0,,,,,14,15,7.91,12.6
21:44:58.379,0,-32,5,,1050657,45.862846,-73.592636,47.33,0.16,1753321495,,,,101346.62,49.49,-1.8,1,0,0,0,0,,12280,,,,,,,0.0,287.0,,,,,16,13,7.91,12.6
21:45:00.245,0,-33,7,,1052518,45.862846,-73.592636,47.34,0.1,1753321497,,,,101342.01,49.49,-1.42,1,0,0,0,0,,12280,,,,,,,0.0,287.0,,,,,16,14,7.91,12.6
21:45:02.116,0,-33,5,,1054379,45.862846,-73.592636,46.67,0.32,1753321499,,,,101343.2,49.5,-1.52,1,0,0,0,0,,12280,,,,,,,0.0,287.0,,,,,16,12,7.91,12.6
21:45:03.975,0,-33,5,,1056240,45.862843,-73.592644,46.62,0.64,1753321499,,,,101342.4,49.51,-1.45,1,0,0,0,0,,12280,,,,,,,0.0,287.0,,,,,17,12,7.91,12.6
21:45:05.849,0,-34,5,,1058101,45.862843,-73.592644,46.88,0.49,1753321503,,,,101344.3,49.53,-1.61,1,0,0,0,0,,12280,,,,,,,0.0,287.0,,,,,199,13,7.91,12.6
21:45:07.697,0,-34,5,,1059963,45.862843,-73.592644,46.78,0.23,1753321505,,,,101346.05,49.53,-1.75,1,0,0,0,0,,12280,,,,,,,0.0,287.0,,,,,201,13,7.91,12.6
21:45:09.597,0,-31,4,,1061824,45.862843,-73.592644,47.22,0.12,1753321507,,,,101345.47,49.54,-1.71,1,0,0,0,0,,12280,,,,,,,0.0,287.0,,,,,200,14,7.91,12.6
21:45:11.467,0,-32,6,,1063686,45.862843,-73.592636,46.89,0.11,1753321508,,,,101345.77,49.55,-1.73,1,0,0,0,0,,12280,,,,,,,0.0,287.0,,,,,201,13,7.91,12.6
21:45:13.324,0,-33,7,,1065548,45.862843,-73.592644,47.01,0.05,1753321510,,,,101343.38,49.54,-1.53,1,0,0,0,0,,12280,,,,,,,0.0,287.0,,,,,200,14,7.91,12.6
21:45:15.192,0,-31,6,,1067410,45.862846,-73.592644,48.26,0.18,1753321512,,,,101340.77,49.55,-1.31,1,0,0,0,0,,12280,,,,,,,0.0,287.0,,,,,201,13,7.91,12.6
21:45:17.053,0,-34,6,,1069272,45.862846,-73.592644,47.4,0.19,1753321514,,,,101343.62,49.56,-1.55,1,0,0,0,0,,12280,,,,,,,0.0,287.0,,,,,201,13,7.91,12.6
21:45:18.914,0,-33,7,,1071133,45.862846,-73.592644,47.6,0.1,1753321516,,,,101341.97,49.56,-1.41,1,0,0,0,0,,12280,,,,,,,0.0,287.0,,,,,201,12,7.91,12.6
21:45:20.784,0,-32,9,,1072995,45.862846,-73.592644,49.74,0.3,1753321518,,,,101341.35,49.57,-1.36,1,0,0,0,0,,12280,,,,,,,0.0,287.0,,,,,199,14,7.91,12.6
21:45:22.636,0,-35,6,,1074857,45.862846,-73.592644,48.17,0.16,1753321520,,,,101343.98,49.58,-1.58,1,0,0,0,0,,12280,,,,,,,0.0,287.0,,,,,201,14,7.91,12.6
21:45:24.502,0,-32,9,,1076719,45.862846,-73.592644,48.38,0.06,1753321521,,,,101341.53,49.58,-1.37,1,0,0,0,0,,12280,,,,,,,0.0,287.0,,,,,202,13,7.91,12.6
21:45:26.368,0,-32,5,,1078581,45.862843,-73.592636,49.4,0.22,1753321523,,,,101343.98,49.6,-1.58,1,0,0,0,0,,12280,,,,,,,0.0,287.0,,,,,200,14,7.91,12.6
21:45:28.233,0,-32,4,,1080443,45.862843,-73.592636,49.36,0.13,1753321525,,,,101342.73,49.61,-1.47,1,0,0,0,0,,12280,,,,,,,0.0,287.0,,,,,202,14,7.91,12.6
21:45:30.107,0,-32,6,,1082305,45.862843,-73.592636,48.54,0.07,1753321527,,,,101344.87,49.61,-1.65,1,0,0,0,0,,12280,,,,,,,0.0,287.0,,,,,200,12,7.91,12.6
21:45:31.967,0,-34,5,,1084167,45.862843,-73.592636,49.13,0.1,1753321529,,,,101344.79,49.62,-1.65,1,0,0,0,0,,12280,,,,,,,0.0,287.0,,,,,200,14,7.91,12.6
21:45:33.750,0,-32,5,,1086029,45.862843,-73.592628,49.22,0.11,1753321531,,,,101340.95,49.62,-1.33,1,0,0,0,0,,12280,,,,,,,0.0,287.0,,,,,200,14,7.9,12.6
21:45:35.613,0,-34,6,,1087891,45.862843,-73.592628,48.7,0.17,1753321533,,,,101341.65,49.63,-1.38,1,0,0,0,0,,12280,,,,,,,0.0,287.0,,,,,200,12,7.91,12.6
21:45:37.463,0,-32,4,,1089752,45.862839,-73.592628,48.76,0.34,1753321533,,,,101340.79,49.64,-1.32,1,0,0,0,0,,12280,,,,,,,0.0,287.0,,,,,201,13,7.9,12.6
21:45:39.431,0,-33,5,,1091614,45.862839,-73.592621,49.16,0.43,1753321536,,,,101342.69,49.64,-1.47,1,0,0,0,0,,12280,,,,,,,0.0,287.0,,,,,201,13,7.91,12.6
21:45:41.268,0,-32,8,,1093476,45.862839,-73.592628,48.79,0.12,1753321538,,,,101342.94,49.66,-1.5,1,0,0,0,0,,12280,,,,,,,0.0,288.0,,,,,201,13,7.9,12.6
21:45:43.141,0,-34,7,,1095337,45.862839,-73.592621,48.86,0.08,1753321540,,,,101343.71,49.66,-1.56,1,0,0,0,0,,12280,,,,,,,0.0,288.0,,,,,201,13,7.91,12.6
21:45:44.992,0,-32,9,,1097199,45.862839,-73.592621,49.83,0.08,1753321542,,,,101340.3,49.67,-1.27,1,0,0,0,0,,12280,,,,,,,0.0,288.0,,,,,201,12,7.9,12.6
21:45:46.770,0,-34,5,,1099060,45.862839,-73.592628,49.09,0.24,1753321544,,,,101341.75,49.68,-1.4,1,0,0,0,0,,12280,,,,,,,0.0,288.0,,,,,202,12,7.91,12.6
21:45:48.714,0,-33,8,,1100922,45.862839,-73.592628,49.28,0.2,1753321546,,,,101343.28,49.68,-1.52,1,0,0,0,0,,12280,,,,,,,0.0,288.0,,,,,201,13,7.9,12.6
21:45:50.583,0,-32,8,,1102784,45.862843,-73.592628,51.17,0.19,1753321548,,,,101340.7,49.68,-1.31,1,0,0,0,0,,12280,,,,,,,0.0,288.0,,,,,201,14,7.9,12.6
21:45:52.369,0,-32,5,,1104646,45.862843,-73.592628,49.79,0.16,1753321548,,,,101342.62,49.7,-1.47,1,0,0,0,0,,12280,,,,,,,0.0,288.0,,,,,201,12,7.9,12.6
21:45:54.230,0,-33,7,,1106508,45.862843,-73.592628,49.83,0.1,1753321551,,,,101340.02,49.7,-1.25,1,0,0,0,0,,12280,,,,,,,0.0,288.0,,,,,200,13,7.9,12.6
21:45:56.093,0,-34,4,,1108369,45.862846,-73.592628,50.69,0.18,1753321553,,,,101344.48,49.72,-1.62,1,0,0,0,0,,12280,,,,,,,0.0,288.0,,,,,200,12,7.9,12.6
21:45:57.954,0,-34,6,,1110231,45.862846,-73.592628,50.36,0.11,1753321555,,,,101342.12,49.72,-1.43,1,0,0,0,0,,12280,,,,,,,0.0,288.0,,,,,202,13,7.9,12.6
21:45:59.816,0,-32,5,,1112093,45.862846,-73.592628,49.8,0.08,1753321557,,,,101342.12,49.72,-1.43,1,0,0,0,0,,12280,,,,,,,0.0,288.0,,,,,200,13,7.9,12.6
21:46:01.778,0,-32,4,,1113955,45.862846,-73.592636,49.88,0.4,1753321559,,,,101339.48,49.72,-1.2,1,0,0,0,0,,12280,,,,,,,0.0,288.0,,,,,200,12,7.9,12.6
21:46:03.565,0,-32,7,,1115817,45.862846,-73.592644,50.47,0.55,1753321561,,,,101344.03,49.74,-1.59,1,0,0,0,0,,12280,,,,,,,0.0,288.0,,,,,190,12,7.9,12.6
21:46:05.430,0,-32,6,,1117679,45.862843,-73.592636,49.87,0.34,1753321562,,,,101338.75,49.73,-1.15,1,0,0,0,0,,12280,,,,,,,0.0,288.0,,,,,36,12,7.9,12.6
21:46:07.271,0,-32,5,,1119540,45.862843,-73.592644,49.66,0.48,1753321564,,,,101341.52,49.75,-1.37,1,0,0,0,0,,12280,,,,,,,0.0,288.0,,,,,19,13,7.9,12.6
21:46:12.547,0,-32,5,,1124824,45.862846,-73.592644,48.88,0.03,1753321570,,,,101339.96,49.77,-1.25,1,0,0,0,0,,12280,,,,,,,0.0,287.0,,,,,16,13,7.91,12.6
21:46:14.408,0,-33,7,,1126685,45.862843,-73.592644,49.08,0.19,1753321571,,,,101338.2,49.76,-1.1,1,0,0,0,0,,12280,,,,,,,0.0,287.0,,,,,16,13,7.9,12.6
21:46:16.284,0,-33,6,,1128546,45.862846,-73.592644,49.12,0.19,1753321573,,,,101340.87,49.78,-1.32,1,0,0,0,0,,12280,,,,,,,0.0,287.0,,,,,16,12,7.9,12.6
21:46:18.167,0,-33,5,,1130407,45.862846,-73.592644,49.24,0.15,1753321575,,,,101337.52,49.78,-1.04,1,0,0,0,0,,12280,,,,,,,0.0,288.0,,,,,14,13,7.9,12.6
21:46:20.037,0,-32,5,,1132268,45.862846,-73.592644,49.17,0.25,1753321577,,,,101340.59,49.8,-1.3,1,0,0,0,0,,12280,,,,,,,0.0,287.0,,,,,15,13,7.9,12.6
21:46:21.909,0,-33,7,,1134129,45.86285,-73.592644,49.24,0.29,1753321579,,,,101341.47,49.8,-1.37,1,0,0,0,0,,12280,,,,,,,0.0,287.0,,,,,16,12,7.9,12.6
21:46:23.769,0,-34,7,,1135990,45.862862,-73.592651,49.93,0.34,1753321581,,,,101340.9,49.81,-1.32,1,0,0,0,0,,12280,,,,,,,0.0,287.0,,,,,17,13,7.9,12.6
21:46:25.628,0,-33,7,,1137851,45.862854,-73.592651,49.4,0.18,1753321583,,,,101340.32,49.82,-1.27,1,0,0,0,0,,12280,,,,,,,0.0,287.0,,,,,17,14,7.9,12.6
21:46:27.499,0,-32,6,,1139712,45.862858,-73.592651,49.35,0.1,1753321584,,,,101339.29,49.82,-1.19,1,0,0,0,0,,12280,,,,,,,0.0,287.0,,,,,14,12,7.9,12.6
21:46:29.374,0,-32,6,,1141573,45.862862,-73.592651,49.76,0.13,1753321586,,,,101340.19,49.83,-1.26,1,0,0,0,0,,12280,,,,,,,0.0,287.0,,,,,16,14,7.9,12.6
21:46:31.217,0,-34,6,,1143434,45.862858,-73.592651,49.71,0.17,1753321588,,,,101339.04,49.83,-1.17,1,0,0,0,0,,12280,,,,,,,0.0,287.0,,,,,16,13,7.9,12.6
21:46:33.078,0,-32,7,,1145295,45.862858,-73.592651,49.36,0.2,1753321590,,,,101341.62,49.84,-1.38,1,0,0,0,0,,12280,,,,,,,0.0,287.0,,,,,16,12,7.9,12.6
21:46:34.939,0,-32,6,,1147156,45.862854,-73.592651,49.48,0.37,1753321592,,,,101339.8,49.85,-1.23,1,0,0,0,0,,12280,,,,,,,0.0,287.0,,,,,16,13,7.9,12.6
21:46:36.741,0,-33,7,,1149017,45.86285,-73.592644,50.57,0.48,1753321594,,,,101340.49,49.85,-1.29,1,0,0,0,0,,12280,,,,,,,0.0,287.0,,,,,16,13,7.9,12.6
21:46:38.603,0,-33,7,,1150878,45.86285,-73.592644,49.76,0.27,1753321596,,,,101340.43,49.86,-1.28,1,0,0,0,0,,12280,,,,,,,0.0,287.0,,,,,16,12,7.9,12.6
21:46:40.462,0,-32,6,,1152739,45.862854,-73.592644,50.05,0.11,1753321597,,,,101340.41,49.86,-1.28,1,0,0,0,0,,12280,,,,,,,0.0,287.0,,,,,16,12,7.9,12.6
21:46:42.325,0,-32,6,,1154600,45.862854,-73.592644,52.06,0.14,1753321599,,,,101338.06,49.87,-1.09,1,0,0,0,0,,12280,,,,,,,0.0,287.0,,,,,15,13,7.9,12.6
21:46:44.185,0,-33,6,,1156461,45.862854,-73.592644,50.65,0.37,1753321601,,,,101339.57,49.87,-1.21,1,0,0,0,0,,12280,,,,,,,0.0,287.0,,,,,17,14,7.9,12.6
21:46:46.062,0,-33,8,,1158322,45.862858,-73.592644,50.91,0.41,1753321603,,,,101340.48,49.89,-1.29,1,0,0,0,0,,12280,,,,,,,0.0,287.0,,,,,17,13,7.9,12.6
21:46:47.952,0,-32,6,,1160183,45.862862,-73.592644,53.14,0.3,1753321605,,,,101337.52,49.89,-1.04,1,0,0,0,0,,12280,,,,,,,0.0,287.0,,,,,16,12,7.9,12.6
21:46:49.778,0,-33,8,,1162044,45.862858,-73.592636,53.07,0.23,1753321607,,,,101342.41,49.9,-1.45,1,0,0,0,0,,12280,,,,,,,0.0,287.0,,,,,13,13,7.9,12.6
21:46:51.673,0,-32,7,,1163905,45.862858,-73.592644,51.51,0.32,1753321609,,,,101340.54,49.91,-1.29,1,0,0,0,0,,12280,,,,,,,0.0,287.0,,,,,16,12,7.9,12.6
21:46:53.512,0,-33,7,,1165766,45.862858,-73.592636,52.95,0.19,1753321609,,,,101339.98,49.92,-1.25,1,0,0,0,0,,12280,,,,,,,0.0,288.0,,,,,17,13,7.9,12.6
21:46:55.397,0,-34,5,,1167627,45.86285,-73.592636,52.78,0.33,1753321612,,,,101341.78,49.91,-1.4,1,0,0,0,0,,12280,,,,,,,0.0,288.0,,,,,16,13,7.9,12.6
21:46:57.248,0,-32,8,,1169488,45.862854,-73.592636,51.76,0.31,1753321614,,,,101340.64,49.93,-1.3,1,0,0,0,0,,12280,,,,,,,0.0,288.0,,,,,15,13,7.9,12.6
21:46:59.128,0,-32,8,,1171349,45.86285,-73.592636,51.77,0.36,1753321616,,,,101339.89,49.92,-1.24,1,0,0,0,0,,12280,,,,,,,0.0,288.0,,,,,15,13,7.9,12.6
21:47:00.971,0,-33,7,,1173210,45.862846,-73.592621,52.74,0.09,1753321618,,,,101340.19,49.93,-1.26,1,0,0,0,0,,12280,,,,,,,0.0,288.0,,,,,16,12,7.9,12.6
21:47:02.851,0,-33,8,,1175071,45.862846,-73.592628,51.87,0.42,1753321620,,,,101339.46,49.94,-1.2,1,0,0,0,0,,12280,,,,,,,0.0,288.0,,,,,200,12,7.9,12.6
21:47:04.714,0,-32,8,,1176933,45.862846,-73.592628,51.83,0.42,1753321622,,,,101340.23,49.94,-1.27,1,0,0,0,0,,12280,,,,,,,0.0,288.0,,,,,201,12,7.9,12.6
21:47:06.583,0,-32,7,,1178795,45.862843,-73.592621,52.38,0.2,1753321624,,,,101339.39,49.95,-1.2,1,0,0,0,0,,12280,,,,,,,0.0,288.0,,,,,201,13,7.9,12.6
21:47:08.440,0,-33,9,,1180657,45.862846,-73.592628,51.91,0.11,1753321625,,,,101339.78,49.97,-1.23,1,0,0,0,0,,12280,,,,,,,0.0,288.0,,,,,201,13,7.9,12.6
21:47:10.297,0,-32,7,,1182518,45.862846,-73.592628,51.93,0.17,1753321627,,,,101338.76,49.96,-1.15,1,0,0,0,0,,12280,,,,,,,0.0,288.0,,,,,201,12,7.9,12.6
21:47:12.164,0,-32,4,,1184380,45.862839,-73.592628,51.37,0.13,1753321629,,,,101339.02,49.96,-1.17,1,0,0,0,0,,12280,,,,,,,0.0,288.0,,,,,199,12,7.9,12.6
21:47:14.039,0,-31,6,,1186242,45.862839,-73.592628,51.14,0.15,1753321631,,,,101341.43,49.98,-1.37,1,0,0,0,0,,12280,,,,,,,0.0,288.0,,,,,199,13,7.9,12.6
21:47:15.898,0,-32,7,,1188104,45.862839,-73.592621,51.56,0.26,1753321633,,,,101340.47,49.99,-1.29,1,0,0,0,0,,12280,,,,,,,0.0,288.0,,,,,201,13,7.9,12.6
21:47:17.759,0,-33,6,,1189965,45.862839,-73.592621,50.93,0.05,1753321635,,,,101338.57,49.99,-1.13,1,0,0,0,0,,12280,,,,,,,0.0,288.0,,,,,201,13,7.9,12.6
21:47:19.552,0,-32,7,,1191827,45.862843,-73.592621,50.83,0.22,1753321637,,,,101339.78,50.0,-1.23,1,0,0,0,0,,12280,,,,,,,0.0,288.0,,,,,202,13,7.9,12.6
21:47:21.414,0,-32,6,,1193689,45.862843,-73.592621,51.27,0.4,1753321638,,,,101335.41,50.0,-0.87,1,0,0,0,0,,12280,,,,,,,0.0,288.0,,,,,200,11,7.9,12.6
21:47:23.357,0,-34,9,,1195551,45.862846,-73.592621,51.17,0.29,1753321640,,,,101337.73,50.01,-1.06,1,0,0,0,0,,12280,,,,,,,0.0,288.0,,,,,200,12,7.9,12.6
21:47:25.139,0,-32,7,,1197413,45.862846,-73.592621,50.34,0.15,1753321642,,,,101339.78,50.03,-1.23,1,0,0,0,0,,12280,,,,,,,0.0,288.0,,,,,201,13,7.9,12.6
21:47:27.000,0,-32,8,,1199275,45.862846,-73.592621,50.86,0.06,1753321644,,,,101338.48,50.03,-1.12,1,0,0,0,0,,12280,,,,,,,0.0,288.0,,,,,201,13,7.9,12.6
21:47:28.872,0,-33,8,,1201136,45.862846,-73.592621,50.7,0.21,1753321646,,,,101340.09,50.03,-1.26,1,0,0,0,0,,12280,,,,,,,0.0,288.0,,,,,201,13,7.9,12.6
21:47:30.748,0,-33,9,,1202998,45.862843,-73.592628,49.75,0.4,1753321648,,,,101339.91,50.04,-1.24,1,0,0,0,0,,12280,,,,,,,0.0,288.0,,,,,201,13,7.9,12.6
21:47:32.592,0,-32,7,,1204860,45.862843,-73.592621,50.41,0.23,1753321650,,,,101339.58,50.05,-1.22,1,0,0,0,0,,12280,,,,,,,0.0,288.0,,,,,200,13,7.9,12.6
21:47:34.447,0,-32,8,,1206722,45.862846,-73.592628,50.24,0.2,1753321651,,,,101339.88,50.04,-1.24,1,0,0,0,0,,12280,,,,,,,0.0,288.0,,,,,200,13,7.9,12.6
21:47:36.309,0,-33,7,,1208584,45.862846,-73.592644,49.79,0.37,1753321653,,,,101337.2,50.06,-1.01,1,0,0,0,0,,12280,,,,,,,0.0,288.0,,,,,201,14,7.9,12.6
21:47:38.217,0,-33,5,,1210446,45.86285,-73.592644,49.9,0.44,1753321655,,,,101339.19,50.06,-1.18,1,0,0,0,0,,12280,,,,,,,0.0,288.0,,,,,201,14,7.9,12.6
21:47:40.036,0,-33,6,,1212308,45.862846,-73.592644,50.11,0.34,1753321657,,,,101337.77,50.06,-1.06,1,0,0,0,0,,12280,,,,,,,0.0,288.0,,,,,201,14,7.9,12.6
21:47:41.920,0,-34,5,,1214170,45.862854,-73.592644,49.92,0.21,1753321659,,,,101339.39,50.07,-1.2,1,0,0,0,0,,12280,,,,,,,0.0,288.0,,,,,202,12,7.9,12.6
21:47:43.792,0,-33,6,,1216032,45.862854,-73.592644,49.59,0.16,1753321661,,,,101337.28,50.08,-1.03,1,0,0,0,0,,12280,,,,,,,0.0,288.0,,,,,202,12,7.9,12.6
21:47:45.681,0,-32,7,,1217894,45.862846,-73.592644,50.16,0.16,1753321663,,,,101341.76,50.1,-1.4,1,0,0,0,0,,12280,,,,,,,0.0,288.0,,,,,201,13,7.9,12.6
21:47:47.541,0,-34,5,,1219756,45.862854,-73.592644,50.0,0.14,1753321664,,,,101339.41,50.09,-1.2,1,0,0,0,0,,12280,,,,,,,0.0,288.0,,,,,201,13,7.9,12.6
21:47:49.401,0,-33,8,,1221618,45.862858,-73.592644,49.21,0.06,1753321666,,,,101336.84,50.1,-0.98,1,0,0,0,0,,12280,,,,,,,0.0,288.0,,,,,200,13,7.9,12.6
21:47:51.276,0,-33,8,,1223480,45.862854,-73.592644,49.67,0.22,1753321668,,,,101337.94,50.12,-1.08,1,0,0,0,0,,12280,,,,,,,0.0,288.0,,,,,201,13,7.9,12.6
21:47:53.068,0,-32,9,,1225342,45.862854,-73.592644,49.47,0.18,1753321670,,,,101338.0,50.11,-1.08,1,0,0,0,0,,12280,,,,,,,0.0,288.0,,,,,198,14,7.9,12.6
21:47:54.930,0,-33,9,,1227204,45.862854,-73.592644,48.73,0.16,1753321672,,,,101337.72,50.13,-1.06,1,0,0,0,0,,12280,,,,,,,0.0,288.0,,,,,201,13,7.9,12.6
21:47:56.781,0,-32,9,,1229066,45.862854,-73.592644,49.25,0.16,1753321674,,,,101340.35,50.13,-1.28,1,0,0,0,0,,12280,,,,,,,0.0,288.0,,,,,202,13,7.9,12.6
21:47:58.653,0,-32,8,,1230928,45.862854,-73.592651,49.24,0.25,1753321676,,,,101334.95,50.14,-0.83,1,0,0,0,0,,12280,,,,,,,0.0,288.0,,,,,201,13,7.9,12.6
21:48:00.516,0,-34,7,,1232790,45.862858,-73.592651,49.17,0.11,1753321678,,,,101335.34,50.15,-0.86,1,0,0,0,0,,12280,,,,,,,0.0,288.0,,,,,201,12,7.89,12.6
21:48:02.378,0,-32,9,,1234652,45.862858,-73.592651,49.29,0.21,1753321679,,,,101338.16,50.17,-1.09,1,0,0,0,0,,12280,,,,,,,0.0,288.0,,,,,201,12,7.9,12.6
21:48:04.275,0,-31,6,,1236514,45.862862,-73.592651,49.37,0.3,1753321681,,,,101336.97,50.17,-1.0,1,0,0,0,0,,12280,,,,,,,0.0,288.0,,,,,81,13,7.89,12.6
21:48:06.173,0,-32,8,,1238375,45.862858,-73.592644,50.47,0.2,1753321683,,,,101338.65,50.18,-1.14,1,0,0,0,0,,12280,,,,,,,0.0,288.0,,,,,29,13,7.9,12.6
21:48:08.025,0,-32,7,,1240236,45.86285,-73.592644,49.68,0.14,1753321685,,,,101338.23,50.18,-1.1,1,0,0,0,0,,12280,,,,,,,0.0,288.0,,,,,18,13,7.9,12.6
21:48:09.823,0,-32,7,,1242097,45.862854,-73.592644,49.63,0.46,1753321687,,,,101337.8,50.19,-1.07,1,0,0,0,0,,12280,,,,,,,0.0,288.0,,,,,17,12,7.9,12.6
21:48:11.750,0,-32,6,,1243958,45.86285,-73.592644,49.73,0.27,1753321689,,,,101337.76,50.19,-1.06,1,0,0,0,0,,12280,,,,,,,0.0,288.0,,,,,16,12,7.9,12.6
21:48:13.591,0,-33,7,,1245819,45.862846,-73.592644,50.05,0.13,1753321691,,,,101337.56,50.2,-1.05,1,0,0,0,0,,12280,,,,,,,0.0,288.0,,,,,16,12,7.9,12.6
21:48:15.463,0,-33,6,,1247680,45.862846,-73.592644,49.82,0.32,1753321692,,,,101336.39,50.2,-0.95,1,0,0,0,0,,12280,,,,,,,0.0,288.0,,,,,17,13,7.9,12.6
21:48:17.328,0,-32,6,,1249541,45.862846,-73.592644,49.87,0.36,1753321694,,,,101335.58,50.21,-0.88,1,0,0,0,0,,12280,,,,,,,0.0,288.0,,,,,14,13,7.89,12.6
21:48:19.208,0,-34,6,,1251402,45.862839,-73.592644,51.08,0.47,1753321696,,,,101338.53,50.22,-1.13,1,0,0,0,0,,12280,,,,,,,0.0,288.0,,,,,15,11,7.9,12.6
21:48:21.063,0,-34,7,,1253263,45.862843,-73.592644,50.21,0.23,1753321698,,,,101337.22,50.23,-1.02,1,0,0,0,0,,12280,,,,,,,0.0,288.0,,,,,16,12,7.89,12.6
21:48:22.926,0,-37,5,,1255124,45.862839,-73.592644,50.4,0.19,1753321700,,,,101338.89,50.24,-1.16,1,0,0,0,0,,12280,,,,,,,0.0,288.0,,,,,16,12,7.9,12.6
21:48:24.785,0,-32,6,,1256985,45.862843,-73.592644,51.97,0.03,1753321702,,,,101337.23,50.24,-1.02,1,0,0,0,0,,12280,,,,,,,0.0,288.0,,,,,16,9,7.89,12.6
21:48:26.650,0,-33,6,,1258846,45.862846,-73.592644,52.22,0.25,1753321704,,,,101334.3,50.24,-0.78,1,0,0,0,0,,12280,,,,,,,0.0,288.0,,,,,17,12,7.9,12.6
21:48:28.523,0,-33,5,,1260707,45.862843,-73.592644,50.93,0.34,1753321705,,,,101335.98,50.25,-0.91,1,0,0,0,0,,12280,,,,,,,0.0,288.0,,,,,16,12,7.89,12.6
21:48:30.398,0,-34,6,,1262568,45.862846,-73.592636,52.63,0.16,1753321707,,,,101339.28,50.25,-1.19,1,0,0,0,0,,12280,,,,,,,0.0,288.0,,,,,17,14,7.9,12.6
21:48:32.218,0,-32,6,,1264429,45.862846,-73.592636,52.69,0.15,1753321709,,,,101334.93,50.25,-0.82,1,0,0,0,0,,12280,,,,,,,0.0,289.0,,,,,19,13,7.89,12.6
21:48:34.122,0,-33,6,,1266290,45.862843,-73.592636,51.35,0.28,1753321711,,,,101336.62,50.26,-0.97,1,0,0,0,0,,12280,,,,,,,0.0,288.0,,,,,17,13,7.89,12.6
21:48:35.955,0,-32,6,,1268151,45.862843,-73.592636,51.23,0.38,1753321713,,,,101335.68,50.27,-0.89,1,0,0,0,0,,12280,,,,,,,0.0,288.0,,,,,16,13,7.89,12.6
21:48:37.813,0,-32,8,,1270012,45.862843,-73.592628,51.27,0.31,1753321715,,,,101335.3,50.27,-0.86,1,0,0,0,0,,12280,,,,,,,0.0,289.0,,,,,16,13,7.89,12.6
21:48:39.599,0,-32,7,,1271873,45.862843,-73.592628,51.0,0.27,1753321717,,,,101335.96,50.28,-0.91,1,0,0,0,0,,12280,,,,,,,0.0,289.0,,,,,16,13,7.89,12.6
21:48:41.461,0,-33,5,,1273734,45.862843,-73.592628,50.89,0.18,1753321718,,,,101334.91,50.28,-0.82,1,0,0,0,0,,12280,,,,,,,0.0,289.0,,,,,15,13,7.89,12.6
21:48:43.321,0,-33,6,,1275595,45.862839,-73.592621,50.59,0.21,1753321720,,,,101333.57,50.29,-0.71,1,0,0,0,0,,12280,,,,,,,0.0,289.0,,,,,16,12,7.89,12.6
21:48:45.183,0,-33,6,,1277456,45.862839,-73.592628,50.82,0.21,1753321722,,,,101334.01,50.3,-0.75,1,0,0,0,0,,12280,,,,,,,0.0,289.0,,,,,16,12,7.89,12.6
21:48:47.044,0,-32,6,,1279317,45.862835,-73.592628,50.78,0.32,1753321724,,,,101336.62,50.31,-0.97,1,0,0,0,0,,12280,,,,,,,0.0,289.0,,,,,16,11,7.89,12.6
21:48:48.905,0,-33,6,,1281178,45.862843,-73.592621,50.85,0.21,1753321726,,,,101332.98,50.3,-0.67,1,0,0,0,0,,12280,,,,,,,0.0,289.0,,,,,16,16,7.89,12.6
21:48:50.782,0,-32,6,,1283039,45.862843,-73.592621,50.82,0.07,1753321728,,,,101335.96,50.31,-0.91,1,0,0,0,0,,12280,,,,,,,0.0,289.0,,,,,16,12,7.89,12.6
21:48:52.627,0,-32,5,,1284900,45.862839,-73.592621,50.72,0.14,1753321730,,,,101337.53,50.32,-1.04,1,0,0,0,0,,12280,,,,,,,0.0,289.0,,,,,16,14,7.89,12.6
21:48:54.511,0,-32,6,,1286761,45.862843,-73.592621,50.71,0.28,1753321730,,,,101335.58,50.32,-0.88,1,0,0,0,0,,12280,,,,,,,0.0,289.0,,,,,16,13,7.89,12.6
21:48:56.349,0,-34,7,,1288622,45.862846,-73.592621,49.92,0.2,1753321733,,,,101336.28,50.33,-0.94,1,0,0,0,0,,12280,,,,,,,0.0,289.0,,,,,15,13,7.89,12.6
21:48:58.227,0,-32,7,,1290483,45.862843,-73.592621,50.47,0.12,1753321735,,,,101335.37,50.33,-0.86,1,0,0,0,0,,12280,,,,,,,0.0,289.0,,,,,17,14,7.89,12.6
21:49:00.109,0,-33,9,,1292344,45.862843,-73.592621,50.41,0.23,1753321737,,,,101336.46,50.34,-0.96,1,0,0,0,0,,12280,,,,,,,0.0,289.0,,,,,15,12,7.89,12.6
21:49:01.986,0,-33,8,,1294205,45.862846,-73.592628,49.59,0.05,1753321739,,,,101335.39,50.34,-0.87,1,0,0,0,0,,12280,,,,,,,0.0,289.0,,,,,16,13,7.89,12.6
21:49:03.848,0,-33,9,,1296066,45.862846,-73.592621,50.21,0.05,1753321741,,,,101333.03,50.35,-0.67,1,0,0,0,0,,12280,,,,,,,0.0,289.0,,,,,199,13,7.89,12.6
21:49:05.698,0,-32,8,,1297928,45.862846,-73.592621,50.07,0.06,1753321743,,,,101335.76,50.36,-0.9,1,0,0,0,0,,12280,,,,,,,0.0,289.0,,,,,201,13,7.89,12.6
21:49:07.585,0,-32,6,,1299789,45.86285,-73.592628,48.98,0.12,1753321745,,,,101333.26,50.35,-0.69,1,0,0,0,0,,12280,,,,,,,0.0,289.0,,,,,200,12,7.89,12.6
21:49:09.437,0,-32,8,,1301651,45.862846,-73.592628,49.76,0.19,1753321746,,,,101334.8,50.36,-0.81,1,0,0,0,0,,12280,,,,,,,0.0,289.0,,,,,202,12,7.89,12.6
21:49:11.293,0,-32,9,,1303513,45.86285,-73.592628,49.61,0.24,1753321748,,,,101334.05,50.38,-0.76,1,0,0,0,0,,12280,,,,,,,0.0,289.0,,,,,200,12,7.89,12.6
21:49:13.176,0,-32,10,,1305375,45.86285,-73.592636,47.98,0.12,1753321750,,,,101336.07,50.38,-0.92,1,0,0,0,0,,12280,,,,,,,0.0,289.0,,,,,200,12,7.89,12.6
21:49:15.034,0,-33,8,,1307237,45.862846,-73.592636,47.86,0.14,1753321752,,,,101336.24,50.39,-0.94,1,0,0,0,0,,12280,,,,,,,0.0,289.0,,,,,201,13,7.89,12.6
21:49:16.915,0,-33,7,,1309099,45.86285,-73.592636,49.1,0.05,1753321754,,,,101334.26,50.38,-0.77,1,0,0,0,0,,12280,,,,,,,0.0,289.0,,,,,200,12,7.89,12.6
21:49:18.694,0,-32,9,,1310961,45.862846,-73.592636,49.02,0.08,1753321756,,,,101334.88,50.4,-0.82,1,0,0,0,0,,12280,,,,,,,0.0,289.0,,,,,201,14,7.89,12.6
21:49:20.631,0,-32,11,,1312823,45.86285,-73.592636,48.95,0.14,1753321758,,,,101337.36,50.41,-1.03,1,0,0,0,0,,12280,,,,,,,0.0,289.0,,,,,201,13,7.89,12.6
21:49:22.492,0,-33,10,,1314685,45.862846,-73.592636,49.12,0.04,1753321759,,,,101334.3,50.4,-0.78,1,0,0,0,0,,12280,,,,,,,0.0,289.0,,,,,200,15,7.89,12.6
21:49:24.275,0,-34,7,,1316547,45.86285,-73.592636,49.27,0.08,1753321761,,,,101331.47,50.41,-0.54,1,0,0,0,0,,12280,,,,,,,0.0,289.0,,,,,200,12,7.89,12.6
21:49:26.137,0,-32,8,,1318409,45.862846,-73.592628,50.31,0.1,1753321763,,,,101333.44,50.42,-0.7,1,0,0,0,0,,12280,,,,,,,0.0,289.0,,,,,202,13,7.89,12.6
21:49:27.998,0,-33,7,,1320270,45.86285,-73.592628,49.5,0.2,1753321765,,,,101332.12,50.42,-0.59,1,0,0,0,0,,12280,,,,,,,0.0,289.0,,,,,200,14,7.89,12.6
21:49:29.860,0,-32,7,,1322132,45.86285,-73.592628,49.58,0.45,1753321767,,,,101334.85,50.43,-0.82,1,0,0,0,0,,12280,,,,,,,0.0,289.0,,,,,201,13,7.89,12.6
21:49:31.722,0,-32,6,,1323994,45.86285,-73.592628,50.87,0.29,1753321769,,,,101334.42,50.43,-0.78,1,0,0,0,0,,12280,,,,,,,0.0,289.0,,,,,201,13,7.89,12.6
21:49:33.584,0,-33,8,,1325856,45.86285,-73.592628,49.79,0.3,1753321771,,,,101335.23,50.44,-0.85,1,0,0,0,0,,12280,,,,,,,0.0,289.0,,,,,202,13,7.89,12.6
21:49:35.446,0,-32,7,,1327718,45.86285,-73.592628,49.94,0.18,1753321772,,,,101334.96,50.45,-0.83,1,0,0,0,0,,12280,,,,,,,0.0,289.0,,,,,201,13,7.89,12.6
21:49:37.336,0,-33,9,,1329580,45.862843,-73.592628,50.99,0.5,1753321774,,,,101338.03,50.46,-1.08,1,0,0,0,0,,12280,,,,,,,0.0,289.0,,,,,201,12,7.89,12.6
21:49:39.203,0,-33,9,,1331442,45.862846,-73.592628,51.01,0.32,1753321776,,,,101336.1,50.46,-0.92,1,0,0,0,0,,12280,,,,,,,0.0,289.0,,,,,201,12,7.89,12.6
21:49:41.043,0,-33,9,,1333304,45.862846,-73.592621,50.11,0.23,1753321778,,,,101336.3,50.47,-0.94,1,0,0,0,0,,12280,,,,,,,0.0,289.0,,,,,201,13,7.89,12.6
21:49:42.934,0,-32,9,,1335166,45.862846,-73.592621,50.25,0.1,1753321780,,,,101335.23,50.47,-0.85,1,0,0,0,0,,12280,,,,,,,0.0,289.0,,,,,201,14,7.89,12.6
21:49:44.796,0,-32,10,,1337028,45.862846,-73.592621,51.54,0.1,1753321782,,,,101333.9,50.48,-0.74,1,0,0,0,0,,12280,,,,,,,0.0,289.0,,,,,200,12,7.89,12.6
21:49:46.648,0,-33,8,,1338890,45.862843,-73.592621,50.53,0.12,1753321784,,,,101335.12,50.48,-0.84,1,0,0,0,0,,12280,,,,,,,0.0,289.0,,,,,203,13,7.89,12.6
21:49:48.515,0,-32,9,,1340752,45.862846,-73.592621,50.7,0.18,1753321785,,,,101333.83,50.49,-0.73,1,0,0,0,0,,12280,,,,,,,0.0,289.0,,,,,200,14,7.89,12.6
21:49:50.381,0,-32,7,,1342614,45.862846,-73.592621,52.63,0.17,1753321787,,,,101333.82,50.49,-0.73,1,0,0,0,0,,12280,,,,,,,0.0,289.0,,,,,201,10,7.89,12.6
21:49:52.245,0,-31,7,,1344476,45.862846,-73.592621,51.11,0.11,1753321789,,,,101334.72,50.5,-0.81,1,0,0,0,0,,12280,,,,,,,0.0,289.0,,,,,200,13,7.89,12.6
21:49:54.086,0,-33,9,,1346338,45.862846,-73.592621,51.3,0.05,1753321791,,,,101335.78,50.51,-0.9,1,0,0,0,0,,12280,,,,,,,0.0,289.0,,,,,201,13,7.89,12.6
21:49:55.950,0,-33,7,,1348200,45.862839,-73.592628,52.6,0.07,1753321793,,,,101334.89,50.51,-0.82,1,0,0,0,0,,12280,,,,,,,0.0,289.0,,,,,201,13,7.89,12.6
21:49:57.821,0,-32,8,,1350061,45.862839,-73.592621,51.47,0.24,1753321795,,,,101337.1,50.52,-1.01,1,0,0,0,0,,12280,,,,,,,0.0,289.0,,,,,200,13,7.89,12.6
21:49:59.706,0,-32,7,,1351923,45.862839,-73.592628,51.51,0.32,1753321797,,,,101335.07,50.52,-0.84,1,0,0,0,0,,12280,,,,,,,0.0,289.0,,,,,200,15,7.89,12.6
21:50:01.556,0,-32,7,,1353785,45.862831,-73.592628,52.23,0.34,1753321799,,,,101334.48,50.52,-0.79,1,0,0,0,0,,12280,,,,,,,0.0,289.0,,,,,200,13,7.89,12.6
21:50:03.416,0,-32,7,,1355647,45.862831,-73.592628,52.02,0.25,1753321800,,,,101334.43,50.53,-0.79,1,0,0,0,0,,12280,,,,,,,0.0,289.0,,,,,74,12,7.89,12.6
21:50:05.316,0,-33,8,,1357508,45.862831,-73.592628,51.64,0.14,1753321802,,,,101334.16,50.53,-0.76,1,0,0,0,0,,12280,,,,,,,0.0,289.0,,,,,25,12,7.89,12.6
21:50:07.155,0,-32,9,,1359369,45.862831,-73.592628,51.83,0.12,1753321804,,,,101335.62,50.54,-0.88,1,0,0,0,0,,12280,,,,,,,0.0,289.0,,,,,17,14,7.89,12.6
21:50:09.009,0,-32,9,,1361230,45.862831,-73.592628,52.12,0.04,1753321806,,,,101331.52,50.54,-0.54,1,0,0,0,0,,12280,,,,,,,0.0,289.0,,,,,18,12,7.89,12.6
21:50:10.877,0,-31,8,,1363091,45.862831,-73.592628,51.71,0.06,1753321808,,,,101333.2,50.55,-0.68,1,0,0,0,0,,12280,,,,,,,0.0,289.0,,,,,16,12,7.89,12.6
21:50:12.711,0,-33,9,,1364952,45.862831,-73.592628,51.75,0.04,1753321810,,,,101332.16,50.55,-0.6,1,0,0,0,0,,12280,,,,,,,0.0,289.0,,,,,16,12,7.89,12.6
21:50:14.610,0,-32,9,,1366813,45.862831,-73.592636,51.94,0.02,1753321812,,,,101331.87,50.56,-0.57,1,0,0,0,0,,12280,,,,,,,0.0,289.0,,,,,18,13,7.89,12.6
21:50:16.475,0,-32,9,,1368674,45.862831,-73.592636,51.71,0.02,1753321813,,,,101332.19,50.56,-0.6,1,0,0,0,0,,12280,,,,,,,0.0,289.0,,,,,16,12,7.89,12.6
21:50:18.334,0,-33,9,,1370535,45.862831,-73.592636,51.7,0.08,1753321815,,,,101331.75,50.57,-0.56,1,0,0,0,0,,12280,,,,,,,0.0,289.0,,,,,17,12,7.89,12.6
21:50:20.193,0,-32,11,,1372396,45.862835,-73.592644,51.75,0.16,1753321817,,,,101333.01,50.57,-0.67,1,0,0,0,0,,12280,,,,,,,0.0,289.0,,,,,15,13,7.89,12.6
21:50:22.056,0,-33,6,,1374258,45.862835,-73.592636,51.73,0.23,1753321817,,,,101333.41,50.58,-0.7,1,0,0,0,0,,12280,,,,,,,0.0,289.0,,,,,15,13,7.89,12.6
21:50:23.848,0,-32,9,,1376119,45.862835,-73.592644,51.79,0.06,1753321821,,,,101335.02,50.59,-0.83,1,0,0,0,0,,12280,,,,,,,0.0,289.0,,,,,16,14,7.89,12.6
21:50:25.709,0,-31,7,,1377980,45.862831,-73.592644,52.37,0.11,1753321823,,,,101332.75,50.6,-0.64,1,0,0,0,0,,12280,,,,,,,0.0,289.0,,,,,16,13,7.89,12.6
21:50:27.640,0,-33,7,,1379841,45.862831,-73.592644,52.22,0.06,1753321825,,,,101332.2,50.6,-0.6,1,0,0,0,0,,12280,,,,,,,0.0,289.0,,,,,14,13,7.89,12.6
21:50:29.432,0,-32,9,,1381702,45.862831,-73.592644,51.85,0.23,1753321826,,,,101333.05,50.61,-0.67,1,0,0,0,0,,12280,,,,,,,0.0,289.0,,,,,16,14,7.89,12.6
21:50:31.295,0,-32,8,,1383563,45.862831,-73.592644,51.83,0.05,1753321828,,,,101333.14,50.61,-0.68,1,0,0,0,0,,12280,,,,,,,0.0,289.0,,,,,15,13,7.89,12.6
21:50:33.177,0,-32,8,,1385424,45.862831,-73.592644,51.69,0.04,1753321830,,,,101331.58,50.61,-0.55,1,0,0,0,0,,12280,,,,,,,0.0,289.0,,,,,16,12,7.89,12.6
21:50:35.051,0,-33,8,,1387285,45.862831,-73.592644,51.7,0.03,1753321832,,,,101330.66,50.62,-0.47,1,0,0,0,0,,12280,,,,,,,0.0,289.0,,,,,16,13,7.89,12.6
21:50:36.919,0,-33,9,,1389146,45.862831,-73.592644,51.69,0.15,1753321834,,,,101331.26,50.62,-0.52,1,0,0,0,0,,12280,,,,,,,0.0,289.0,,,,,16,12,7.89,12.6
21:50:38.781,0,-33,9,,1391007,45.862827,-73.592636,52.21,0.08,1753321836,,,,101332.69,50.63,-0.64,1,0,0,0,0,,12280,,,,,,,0.0,289.0,,,,,16,12,7.89,12.6
21:50:40.662,0,-32,11,,1392868,45.862827,-73.592644,51.74,0.2,1753321838,,,,101333.43,50.63,-0.7,1,0,0,0,0,,12280,,,,,,,0.0,289.0,,,,,17,13,7.89,12.6
21:50:42.525,0,-32,9,,1394730,45.862827,-73.592636,51.67,0.26,1753321839,,,,101334.4,50.64,-0.78,1,0,0,0,0,,12280,,,,,,,0.0,289.0,,,,,17,12,7.89,12.6
21:50:44.374,0,-32,10,,1396591,45.862827,-73.592636,51.81,0.31,1753321841,,,,101332.03,50.65,-0.59,1,0,0,0,0,,12280,,,,,,,0.0,289.0,,,,,17,12,7.89,12.6
21:50:46.249,0,-32,10,,1398453,45.862823,-73.592636,51.87,0.21,1753321843,,,,101331.91,50.65,-0.58,1,0,0,0,0,,12280,,,,,,,0.0,289.0,,,,,17,12,7.89,12.6
21:50:48.089,0,-32,10,,1400315,45.862823,-73.592636,51.64,0.34,1753321845,,,,101337.48,50.67,-1.04,1,0,0,0,0,,12280,,,,,,,0.0,289.0,,,,,16,13,7.89,12.6
21:50:49.969,0,-32,10,,1402176,45.862827,-73.592636,51.85,0.17,1753321847,,,,101333.91,50.67,-0.74,1,0,0,0,0,,12280,,,,,,,0.0,289.0,,,,,17,14,7.89,12.6
21:50:51.812,0,-34,10,,1404038,45.862827,-73.592636,51.87,0.34,1753321849,,,,101334.28,50.67,-0.77,1,0,0,0,0,,12280,,,,,,,0.0,289.0,,,,,15,13,7.89,12.6
21:50:53.693,0,-33,11,,1405900,45.862827,-73.592636,51.67,0.35,1753321851,,,,101332.53,50.68,-0.63,1,0,0,0,0,,12280,,,,,,,0.0,289.0,,,,,17,13,7.89,12.6
21:50:55.559,0,-32,10,,1407761,45.862827,-73.592636,51.68,0.24,1753321852,,,,101333.04,50.68,-0.67,1,0,0,0,0,,12280,,,,,,,0.0,289.0,,,,,16,12,7.89,12.6
21:50:57.433,0,-32,11,,1409623,45.862827,-73.592628,51.9,0.16,1753321854,,,,101334.48,50.69,-0.79,1,0,0,0,0,,12280,,,,,,,0.0,289.0,,,,,15,13,7.89,12.6
21:50:59.282,0,-32,11,,1411484,45.862827,-73.592628,51.67,0.16,1753321856,,,,101331.93,50.69,-0.58,1,0,0,0,0,,12280,,,,,,,0.0,289.0,,,,,16,13,7.89,12.6
21:51:01.152,0,-32,11,,1413346,45.862827,-73.592628,51.78,0.06,1753321858,,,,101330.91,50.68,-0.49,1,0,0,0,0,,12280,,,,,,,0.0,289.0,,,,,16,9,7.89,12.6
21:51:03.044,0,-32,10,,1415207,45.862827,-73.592628,52.37,0.15,1753321860,,,,101334.34,50.7,-0.78,1,0,0,0,0,,12280,,,,,,,0.0,289.0,,,,,199,13,7.89,12.6
21:51:04.881,0,-34,10,,1417069,45.862827,-73.592628,51.91,0.1,1753321862,,,,101335.09,50.7,-0.84,1,0,0,0,0,,12280,,,,,,,0.0,289.0,,,,,202,13,7.89,12.6
21:51:06.742,0,-32,11,,1418931,45.862827,-73.592628,51.79,0.18,1753321864,,,,101335.88,50.7,-0.9,1,0,0,0,0,,12280,,,,,,,0.0,289.0,,,,,201,12,7.89,12.6
21:51:08.600,0,-32,11,,1420793,45.862835,-73.592628,52.64,0.2,1753321866,,,,101335.19,50.72,-0.85,1,0,0,0,0,,12280,,,,,,,0.0,289.0,,,,,200,13,7.88,12.6
21:51:10.495,0,-32,12,,1422655,45.862827,-73.592628,52.4,0.45,1753321867,,,,101335.44,50.72,-0.87,1,0,0,0,0,,12280,,,,,,,0.0,289.0,,,,,201,13,7.89,12.6
21:51:12.329,0,-32,11,,1424517,45.862827,-73.592628,51.92,0.22,1753321869,,,,101335.93,50.72,-0.91,1,0,0,0,0,,12280,,,,,,,0.0,289.0,,,,,200,14,7.88,12.6
21:51:14.188,0,-29,11,,1426379,45.862831,-73.592628,53.19,0.22,1753321871,,,,101335.64,50.72,-0.89,1,0,0,0,0,,12280,,,,,,,0.0,289.0,,,,,200,14,7.89,12.6
21:51:16.048,0,-29,12,,1428241,45.862831,-73.592636,53.33,0.25,1753321873,,,,101335.29,50.74,-0.86,1,0,0,0,0,,12280,,,,,,,0.0,289.0,,,,,200,14,7.88,12.6
21:51:17.912,0,-32,11,,1430103,45.862831,-73.592636,52.37,0.34,1753321875,,,,101334.45,50.74,-0.79,1,0,0,0,0,,12280,,,,,,,0.0,289.0,,,,,200,12,7.89,12.6
21:51:19.769,0,-33,8,,1431965,45.862831,-73.592636,52.49,0.16,1753321877,,,,101334.78,50.75,-0.81,1,0,0,0,0,,12280,,,,,,,0.0,289.0,,,,,199,13,7.88,12.6
21:51:21.619,0,-32,9,,1433827,45.862835,-73.592636,53.21,0.09,1753321879,,,,101335.65,50.75,-0.89,1,0,0,0,0,,12280,,,,,,,0.0,289.0,,,,,201,13,7.89,12.6
21:51:23.503,0,-32,10,,1435689,45.862831,-73.592636,52.57,0.08,1753321880,,,,101334.09,50.76,-0.76,1,0,0,0,0,,12280,,,,,,,0.0,289.0,,,,,200,13,7.88,12.6
21:51:25.366,0,-32,11,,1437551,45.862835,-73.592636,52.55,0.18,1753321882,,,,101332.76,50.76,-0.64,1,0,0,0,0,,12280,,,,,,,0.0,289.0,,,,,200,14,7.88,12.6
21:51:27.224,0,-32,11,,1439413,45.862839,-73.592628,53.07,0.19,1753321884,,,,101331.41,50.77,-0.53,1,0,0,0,0,,12280,,,,,,,0.0,290.0,,,,,201,13,7.88,12.6
21:51:29.091,0,-32,10,,1441275,45.862831,-73.592628,52.57,0.39,1753321886,,,,101334.2,50.77,-0.77,1,0,0,0,0,,12280,,,,,,,0.0,290.0,,,,,201,13,7.88,12.6
21:51:30.952,0,-33,11,,1443137,45.862835,-73.592628,52.62,0.14,1753321888,,,,101333.51,50.78,-0.71,1,0,0,0,0,,12280,,,,,,,0.0,290.0,,,,,201,13,7.88,12.6
21:51:32.814,0,-33,10,,1444999,45.862843,-73.592636,53.63,0.27,1753321890,,,,101335.07,50.79,-0.84,1,0,0,0,0,,12280,,,,,,,0.0,290.0,,,,,202,12,7.88,12.6
21:51:34.667,0,-32,11,,1446861,45.862839,-73.592636,52.77,0.21,1753321892,,,,101333.85,50.78,-0.73,1,0,0,0,0,,12280,,,,,,,0.0,290.0,,,,,200,13,7.88,12.6
21:51:36.454,0,-32,11,,1448723,45.862839,-73.592628,52.83,0.13,1753321893,,,,101333.48,50.79,-0.71,1,0,0,0,0,,12280,,,,,,,0.0,290.0,,,,,200,14,7.88,12.6
21:51:38.307,0,-29,12,,1450585,45.862843,-73.592636,53.96,0.03,1753321895,,,,101332.25,50.79,-0.6,1,0,0,0,0,,12280,,,,,,,0.0,290.0,,,,,201,13,7.88,12.6
21:51:40.178,0,-32,11,,1452447,45.862846,-73.592644,54.25,0.07,1753321897,,,,101331.37,50.8,-0.53,1,0,0,0,0,,12280,,,,,,,0.0,290.0,,,,,201,11,7.88,12.6
21:51:42.040,0,-32,13,,1454309,45.862846,-73.592636,53.14,0.17,1753321899,,,,101332.38,50.8,-0.61,1,0,0,0,0,,12280,,,,,,,0.0,290.0,,,,,201,13,7.88,12.6
21:51:43.898,0,-29,12,,1456171,45.862846,-73.592644,53.24,0.19,1753321901,,,,101334.11,50.81,-0.76,1,0,0,0,0,,12280,,,,,,,0.0,290.0,,,,,201,13,7.88,12.6
21:51:45.763,0,-33,11,,1458033,45.86285,-73.592644,54.06,0.08,1753321903,,,,101334.58,50.81,-0.8,1,0,0,0,0,,12280,,,,,,,0.0,290.0,,,,,200,13,7.88,12.6
21:51:47.627,0,-33,8,,1459895,45.862846,-73.592644,53.22,0.13,1753321905,,,,101334.4,50.82,-0.78,1,0,0,0,0,,12280,,,,,,,0.0,290.0,,,,,201,13,7.88,12.6
21:51:49.488,0,-32,10,,1461756,45.862846,-73.592644,53.21,0.05,1753321906,,,,101334.43,50.83,-0.79,1,0,0,0,0,,12280,,,,,,,0.0,290.0,,,,,200,12,7.88,12.6
21:51:51.350,0,-32,9,,1463618,45.86285,-73.592644,54.12,0.14,1753321908,,,,101335.66,50.83,-0.89,1,0,0,0,0,,12280,,,,,,,0.0,290.0,,,,,200,14,7.88,12.6
21:51:53.206,0,-32,10,,1465480,45.862846,-73.592644,53.29,0.06,1753321910,,,,101336.91,50.84,-0.99,1,0,0,0,0,,12280,,,,,,,0.0,290.0,,,,,201,12,7.88,12.6
21:51:55.104,0,-33,8,,1467342,45.86285,-73.592644,53.21,0.32,1753321912,,,,101333.29,50.84,-0.69,1,0,0,0,0,,12280,,,,,,,0.0,290.0,,,,,200,14,7.88,12.6
21:51:56.978,0,-33,8,,1469204,45.862858,-73.592644,52.97,0.37,1753321914,,,,101336.03,50.85,-0.92,1,0,0,0,0,,12280,,,,,,,0.0,290.0,,,,,201,14,7.88,12.6
21:51:58.839,0,-33,9,,1471066,45.86285,-73.592644,53.01,0.18,1753321916,,,,101334.73,50.85,-0.81,1,0,0,0,0,,12280,,,,,,,0.0,290.0,,,,,200,14,7.88,12.6
21:52:00.694,0,-32,10,,1472928,45.86285,-73.592644,52.91,0.22,1753321918,,,,101335.69,50.86,-0.89,1,0,0,0,0,,12280,,,,,,,0.0,290.0,,,,,201,12,7.88,12.6
21:52:02.552,0,-33,11,,1474790,45.86285,-73.592651,52.77,0.37,1753321920,,,,101335.65,50.86,-0.89,1,0,0,0,0,,12280,,,,,,,0.0,290.0,,,,,199,12,7.88,12.6
21:52:04.400,0,-32,11,,1476652,45.862846,-73.592651,52.78,0.37,1753321921,,,,101335.09,50.86,-0.84,1,0,0,0,0,,12280,,,,,,,0.0,290.0,,,,,38,13,7.88,12.6
21:52:06.282,0,-32,11,,1478514,45.86285,-73.592651,52.82,0.12,1753321923,,,,101337.57,50.87,-1.05,1,0,0,0,0,,12280,,,,,,,0.0,290.0,,,,,20,14,7.88,12.6
21:52:08.134,0,-32,11,,1480376,45.862846,-73.592651,52.53,0.16,1753321925,,,,101332.69,50.87,-0.64,1,0,0,0,0,,12280,,,,,,,0.0,290.0,,,,,17,13,7.88,12.6
21:52:10.003,0,-32,11,,1482237,45.86285,-73.592651,52.4,0.22,1753321927,,,,101335.22,50.88,-0.85,1,0,0,0,0,,12280,,,,,,,0.0,290.0,,,,,16,14,7.88,12.6
21:52:11.870,0,-32,11,,1484099,45.86285,-73.592651,52.62,0.07,1753321929,,,,101333.4,50.88,-0.7,1,0,0,0,0,,12280,,,,,,,0.0,290.0,,,,,16,12,7.88,12.6
21:52:13.716,0,-32,10,,1485961,45.86285,-73.592651,52.64,0.04,1753321931,,,,101336.41,50.89,-0.95,1,0,0,0,0,,12280,,,,,,,0.0,290.0,,,,,16,12,7.88,12.6
21:52:15.596,0,-32,11,,1487823,45.86285,-73.592644,53.0,0.1,1753321933,,,,101335.47,50.89,-0.87,1,0,0,0,0,,12280,,,,,,,0.0,290.0,,,,,17,12,7.88,12.6
21:52:17.491,0,-32,10,,1489685,45.862846,-73.592644,52.67,0.31,1753321934,,,,101335.25,50.9,-0.86,1,0,0,0,0,,12280,,,,,,,0.0,290.0,,,,,16,13,7.88,12.6
21:52:19.339,0,-32,11,,1491547,45.86285,-73.592644,52.58,0.2,1753321936,,,,101336.26,50.9,-0.94,1,0,0,0,0,,12280,,,,,,,0.0,290.0,,,,,15,13,7.88,12.6
21:52:24.623,0,-32,11,,1496832,45.862854,-73.592644,52.92,0.14,1753321942,,,,101338.93,50.92,-1.16,1,0,0,0,0,,12280,,,,,,,0.0,290.0,,,,,16,13,7.89,12.6
21:52:26.499,0,-32,11,,1498694,45.86285,-73.592644,52.57,0.13,1753321943,,,,101335.38,50.91,-0.86,1,0,0,0,0,,12280,,,,,,,0.0,290.0,,,,,16,13,7.88,12.6
21:52:28.288,0,-32,11,,1500556,45.862846,-73.592644,52.56,0.54,1753321945,,,,101333.42,50.92,-0.7,1,0,0,0,0,,12280,,,,,,,0.0,290.0,,,,,17,12,7.88,12.6
21:52:30.222,0,-32,11,,1502417,45.86285,-73.592644,52.89,0.37,1753321947,,,,101334.48,50.93,-0.79,1,0,0,0,0,,12280,,,,,,,0.0,290.0,,,,,17,12,7.88,12.6
21:52:32.011,0,-33,11,,1504279,45.862846,-73.592644,52.63,0.14,1753321949,,,,101335.73,50.93,-0.89,1,0,0,0,0,,12280,,,,,,,0.0,290.0,,,,,16,13,7.88,12.6
21:52:33.941,0,-32,11,,1506141,45.86285,-73.592644,52.85,0.28,1753321951,,,,101336.91,50.94,-0.99,1,0,0,0,0,,12280,,,,,,,0.0,290.0,,,,,12,13,7.88,12.6
21:52:35.735,0,-32,11,,1508002,45.862854,-73.592636,54.07,0.32,1753321953,,,,101333.79,50.95,-0.73,1,0,0,0,0,,12280,,,,,,,0.0,290.0,,,,,16,14,7.88,12.6
21:52:37.673,0,-32,11,,1509864,45.86285,-73.592636,53.14,0.13,1753321955,,,,101336.78,50.95,-0.98,1,0,0,0,0,,12280,,,,,,,0.0,291.0,,,,,17,9,7.88,12.6
21:52:39.538,0,-32,11,,1511725,45.862854,-73.592636,53.26,0.25,1753321956,,,,101336.62,50.96,-0.97,1,0,0,0,0,,12280,,,,,,,0.0,291.0,,,,,15,11,7.88,12.6
21:52:41.320,0,-32,11,,1513587,45.86285,-73.592636,53.89,0.07,1753321958,,,,101337.73,50.96,-1.06,1,0,0,0,0,,12280,,,,,,,0.0,291.0,,,,,16,12,7.88,12.6
21:52:43.170,0,-32,11,,1515449,45.862854,-73.592628,53.64,0.1,1753321960,,,,101335.09,50.97,-0.84,1,0,0,0,0,,12280,,,,,,,0.0,291.0,,,,,17,13,7.88,12.6
21:52:45.044,0,-32,11,,1517311,45.86285,-73.592628,53.27,0.21,1753321962,,,,101335.56,50.97,-0.88,1,0,0,0,0,,12280,,,,,,,0.0,291.0,,,,,17,12,7.88,12.6
21:52:46.981,0,-32,11,,1519173,45.86285,-73.592628,53.26,0.12,1753321964,,,,101335.98,50.98,-0.91,1,0,0,0,0,,12280,,,,,,,0.0,291.0,,,,,16,14,7.88,12.6
21:52:48.769,0,-32,11,,1521035,45.86285,-73.592628,53.76,0.1,1753321966,,,,101333.93,50.98,-0.75,1,0,0,0,0,,12280,,,,,,,0.0,291.0,,,,,17,12,7.88,12.6
21:52:50.630,0,-31,12,,1522897,45.86285,-73.592628,53.26,0.3,1753321968,,,,101335.66,50.99,-0.89,1,0,0,0,0,,12280,,,,,,,0.0,291.0,,,,,16,13,7.88,12.6
21:52:52.493,0,-31,12,,1524759,45.86285,-73.592628,53.11,0.18,1753321969,,,,101334.34,50.99,-0.78,1,0,0,0,0,,12280,,,,,,,0.0,291.0,,,,,16,14,7.88,12.6
21:52:54.354,0,-32,12,,1526621,45.862854,-73.592628,53.1,0.18,1753321971,,,,101334.55,51.0,-0.79,1,0,0,0,0,,12280,,,,,,,0.0,291.0,,,,,13,13,7.88,12.6
21:52:56.214,0,-32,12,,1528483,45.862846,-73.592628,52.87,0.37,1753321973,,,,101336.97,51.0,-1.0,1,0,0,0,0,,12280,,,,,,,0.0,291.0,,,,,16,12,7.88,12.6
21:52:58.100,0,-32,11,,1530345,45.862846,-73.592628,52.74,0.51,1753321975,,,,101336.71,51.01,-0.98,1,0,0,0,0,,12280,,,,,,,0.0,291.0,,,,,15,13,7.88,12.6
21:52:59.940,0,-32,11,,1532207,45.862846,-73.592628,52.58,0.38,1753321977,,,,101336.21,51.01,-0.94,1,0,0,0,0,,12280,,,,,,,0.0,291.0,,,,,16,13,7.88,12.6
21:53:01.827,0,-32,11,,1534068,45.862846,-73.592628,52.58,0.17,1753321979,,,,101337.53,51.02,-1.04,1,0,0,0,0,,12280,,,,,,,0.0,291.0,,,,,16,12,7.88,12.6
21:53:03.683,0,-32,12,,1535929,45.862846,-73.592628,52.62,0.12,1753321981,,,,101337.18,51.02,-1.01,1,0,0,0,0,,12280,,,,,,,0.0,291.0,,,,,194,13,7.88,12.6
21:53:05.560,0,-33,11,,1537791,45.862846,-73.592628,53.15,0.16,1753321983,,,,101336.6,51.03,-0.97,1,0,0,0,0,,12280,,,,,,,0.0,291.0,,,,,200,11,7.88,12.6
21:53:07.418,0,-33,11,,1539653,45.86285,-73.592628,53.41,0.08,1753321984,,,,101335.92,51.03,-0.91,1,0,0,0,0,,12280,,,,,,,0.0,291.0,,,,,200,13,7.88,12.6
21:53:09.298,0,-33,11,,1541515,45.862846,-73.592628,52.69,0.18,1753321986,,,,101336.21,51.04,-0.94,1,0,0,0,0,,12280,,,,,,,0.0,291.0,,,,,200,15,7.88,12.6
21:53:11.166,0,-33,11,,1543377,45.86285,-73.592621,52.87,0.25,1753321988,,,,101337.47,51.04,-1.04,1,0,0,0,0,,12280,,,,,,,0.0,291.0,,,,,200,10,7.88,12.6
21:53:13.016,0,-33,11,,1545239,45.862854,-73.592621,53.3,0.21,1753321990,,,,101336.26,51.05,-0.94,1,0,0,0,0,,12280,,,,,,,0.0,291.0,,,,,200,13,7.88,12.6
21:53:14.871,0,-33,11,,1547101,45.86285,-73.592621,52.79,0.25,1753321992,,,,101334.88,51.04,-0.82,1,0,0,0,0,,12280,,,,,,,0.0,291.0,,,,,200,12,7.88,12.6
21:53:16.743,0,-33,11,,1548963,45.862854,-73.592621,52.75,0.45,1753321994,,,,101338.41,51.05,-1.12,1,0,0,0,0,,12280,,,,,,,0.0,291.0,,,,,200,14,7.88,12.6
21:53:18.608,0,-32,12,,1550825,45.862854,-73.592613,51.85,0.4,1753321996,,,,101337.11,51.05,-1.01,1,0,0,0,0,,12280,,,,,,,0.0,291.0,,,,,201,13,7.88,12.6
21:53:20.466,0,-32,11,,1552687,45.86285,-73.592613,52.43,0.36,1753321997,,,,101335.77,51.06,-0.9,1,0,0,0,0,,12280,,,,,,,0.0,291.0,,,,,200,14,7.88,12.6
21:53:22.329,0,-32,11,,1554549,45.86285,-73.592621,52.28,0.37,1753321999,,,,101335.47,51.06,-0.87,1,0,0,0,0,,12280,,,,,,,0.0,291.0,,,,,200,14,7.88,12.6
21:53:24.198,0,-32,11,,1556411,45.862858,-73.592621,49.79,0.14,1753322001,,,,101338.09,51.07,-1.09,1,0,0,0,0,,12280,,,,,,,0.0,291.0,,,,,200,13,7.88,12.6
21:53:26.079,0,-32,11,,1558273,45.862854,-73.592621,51.61,0.07,1753322003,,,,101335.86,51.07,-0.9,1,0,0,0,0,,12280,,,,,,,0.0,291.0,,,,,201,14,7.88,12.6
21:53:27.954,0,-32,12,,1560135,45.862854,-73.592621,51.29,0.24,1753322005,,,,101339.43,51.08,-1.2,1,0,0,0,0,,12280,,,,,,,0.0,291.0,,,,,200,14,7.88,12.6
21:53:29.812,0,-31,12,,1561997,45.862862,-73.592628,49.2,0.24,1753322007,,,,101337.0,51.07,-1.0,1,0,0,0,0,,12280,,,,,,,0.0,291.0,,,,,200,15,7.88,12.6
21:53:31.685,0,-32,11,,1563859,45.862862,-73.592628,49.01,0.14,1753322009,,,,101338.03,51.09,-1.08,1,0,0,0,0,,12280,,,,,,,0.0,291.0,,,,,202,11,7.88,12.6
