timestamp,ack,rssi,snr,fc_unix_time_usec,fc_boot_time_ms,gps_lat,gps_lon,gps_alt,gps_speed,gps_time,abs_pressure1,temperature1,altitude1_empty,abs_pressure2,temperature2,altitude1,sd_status,actuator_status,logging_active,write_rate,space_left,pix_unix_time_usec,pix_boot_time_ms,vibe_x,vibe_y,vibe_z,clip_x,clip_y,clip_z,gps_bearing,gps_bearing_magnetic,gps_bearing_true,gps_bearing_ground_speed,gps_bearing_ground_speed_magnetic,gps_bearing_ground_speed_true,photodiode_value1,photodiode_value2,fc_battery_voltage,led_battery_voltage
22:10:41.580,0,-26,12,,337644,45.863163,-73.592896,54.87,1.35,1751497180,,,,100679.3,34.65,53.9,1,0,0,0,0,,11742,,,,,,,0.0,274.0,,,,,24,17,16.28,12.6
22:10:43.468,0,-28,11,,339506,45.863163,-73.592896,55.15,0.81,1751497182,,,,100676.98,34.68,54.09,1,0,0,0,0,,11742,,,,,,,0.0,277.0,,,,,23,14,16.28,12.6
22:10:45.320,0,-31,12,,341367,45.863163,-73.592896,55.33,0.97,1751497184,,,,100675.9,34.71,54.18,1,0,0,0,0,,11742,,,,,,,0.0,272.0,,,,,25,16,16.28,12.6
22:10:47.163,0,-28,11,,343229,45.863163,-73.592896,55.44,2.32,1751497186,,,,100680.59,34.75,53.79,1,0,0,0,0,,11742,,,,,,,0.0,272.0,,,,,22,15,16.28,12.6
22:10:49.024,0,-31,12,,345090,45.863163,-73.592896,55.64,3.66,1751497187,,,,100678.56,34.79,53.96,1,0,0,0,0,,11742,,,,,,,0.0,266.0,,,,,25,15,16.29,12.6
22:10:50.885,0,-25,12,,346951,45.863163,-73.592896,55.56,4.46,1751497189,,,,100676.98,34.81,54.09,1,0,0,0,0,,11742,,,,,,,0.0,244.0,,,,,24,16,16.28,12.6
22:10:52.749,0,-21,12,,348812,45.863163,-73.592896,55.63,5.56,1751497191,,,,100675.14,34.84,54.25,1,0,0,0,0,,11742,,,,,,,0.0,239.0,,,,,28,19,16.28,12.6
22:10:54.596,0,-25,12,,350674,45.863163,-73.592903,55.97,6.27,1751497193,,,,100677.11,34.88,54.08,1,0,0,0,0,,11742,,,,,,,0.0,261.0,,,,,25,15,16.28,12.6
22:10:56.471,0,-43,12,,352535,45.863163,-73.592903,56.15,6.97,1751497195,,,,100676.28,34.92,54.15,1,0,0,0,0,,11742,,,,,,,0.0,262.0,,,,,24,14,16.28,12.6
22:10:58.330,0,-36,11,,354396,45.863163,-73.592896,56.14,7.82,1751497197,,,,100672.47,34.95,54.47,1,0,0,0,0,,11742,,,,,,,0.0,242.0,,,,,24,14,16.28,12.6
22:11:00.185,0,-26,11,,356257,45.863163,-73.592896,56.6,8.38,1751497199,,,,100674.28,34.98,54.32,1,0,0,0,0,,11742,,,,,,,0.0,244.0,,,,,23,22,16.28,12.6
22:11:02.052,0,-27,12,,358118,45.863163,-73.592896,56.84,8.88,1751497200,,,,100674.35,35.02,54.31,1,0,0,0,0,,11742,,,,,,,0.0,242.0,,,,,30,14,16.28,12.6
22:11:03.915,0,-28,12,,359979,45.863155,-73.592903,57.39,9.16,1751497202,,,,100670.76,35.05,54.61,1,0,0,0,0,,11742,,,,,,,0.0,241.0,,,,,22,17,16.28,12.6
22:11:05.775,0,-29,10,,361840,45.863148,-73.592911,57.31,9.51,1751497204,,,,100671.16,35.07,54.58,1,0,0,0,0,,11742,,,,,,,0.0,242.0,,,,,26,17,16.28,12.6
22:11:07.636,0,-23,11,,363701,45.86314,-73.592918,57.35,9.82,1751497206,,,,100672.62,35.12,54.46,1,0,0,0,0,,11742,,,,,,,0.0,242.0,,,,,26,17,16.28,12.6
22:11:09.497,0,-24,12,,365562,45.863144,-73.592918,57.33,10.09,1751497208,,,,100671.02,35.14,54.59,1,0,0,0,0,,11742,,,,,,,0.0,235.0,,,,,28,18,16.28,12.6
22:11:11.359,0,-22,12,,367424,45.863136,-73.592918,57.06,10.37,1751497210,,,,100673.33,35.18,54.4,1,0,0,0,0,,11742,,,,,,,0.0,218.0,,,,,26,18,16.28,12.6
22:11:13.221,0,-23,12,,369286,45.863136,-73.592918,56.57,11.12,1751497212,,,,100673.39,35.22,54.39,1,0,0,0,0,,11742,,,,,,,0.0,199.0,,,,,25,16,16.28,12.6
22:11:15.083,0,-36,12,,371148,45.863136,-73.592918,56.44,11.37,1751497213,,,,100673.29,35.25,54.4,1,0,0,0,0,,11742,,,,,,,0.0,196.0,,,,,20,17,16.28,12.6
22:11:16.945,0,-25,12,,373010,45.863132,-73.592918,56.55,12.05,1751497215,,,,100672.47,35.28,54.47,1,0,0,0,0,,11742,,,,,,,0.0,167.0,,,,,27,13,16.28,12.6
22:11:18.807,0,-23,11,,374872,45.863136,-73.592918,55.91,11.98,1751497217,,,,100671.87,35.31,54.52,1,0,0,0,0,,11742,,,,,,,0.0,149.0,,,,,25,16,16.28,12.6
22:11:20.669,0,-25,12,,376734,45.863144,-73.592918,54.87,13.08,1751497219,,,,100675.79,35.35,54.19,1,0,0,0,0,,11742,,,,,,,0.0,149.0,,,,,29,17,16.28,12.6
22:11:22.531,0,-28,12,,378596,45.863144,-73.592918,54.54,13.37,1751497221,,,,100673.54,35.38,54.38,1,0,0,0,0,,11742,,,,,,,0.0,153.0,,,,,24,15,16.28,12.6
22:11:24.393,0,-31,11,,380458,45.863148,-73.592911,54.95,13.03,1751497223,,,,100672.54,35.4,54.46,1,0,0,0,0,,11742,,,,,,,0.0,139.0,,,,,24,14,16.28,12.6
22:11:26.308,0,-28,12,,382320,45.863159,-73.592903,54.48,13.61,1751497225,,,,100674.72,35.44,54.28,1,0,0,0,0,,11742,,,,,,,0.0,57.0,,,,,23,19,16.28,12.6
22:11:28.108,0,-24,10,,384182,45.863155,-73.592903,53.96,14.81,1751497226,,,,100673.88,35.47,54.35,1,0,0,0,0,,11742,,,,,,,0.0,337.0,,,,,23,15,16.28,12.6
22:11:29.979,0,-22,12,,386044,45.863155,-73.592911,53.5,15.77,1751497228,,,,100672.28,35.5,54.48,1,0,0,0,0,,11742,,,,,,,0.0,355.0,,,,,23,15,16.28,12.6
22:11:31.905,0,-39,11,,387906,45.863152,-73.592911,53.5,16.79,1751497230,,,,100674.41,35.53,54.31,1,0,0,0,0,,11742,,,,,,,0.0,61.0,,,,,23,13,16.28,12.6
22:11:33.752,0,-15,12,,389768,45.863155,-73.592911,53.62,17.8,1751497232,,,,100671.84,35.56,54.52,1,0,0,0,0,,11742,,,,,,,0.0,132.0,,,,,22,15,16.28,12.6
22:11:35.625,0,-16,12,,391630,45.863159,-73.592903,54.05,18.47,1751497234,,,,100669.98,35.59,54.68,1,0,0,0,0,,11742,,,,,,,0.0,119.0,,,,,24,14,16.28,12.6
22:11:37.490,0,-22,12,,393492,45.863155,-73.592896,53.99,17.71,1751497236,,,,100667.12,35.62,54.92,1,0,0,0,0,,11742,,,,,,,0.0,57.0,,,,,22,14,16.28,12.6
22:11:39.348,0,-33,11,,395353,45.863163,-73.592896,54.19,18.9,1751497238,,,,100666.41,35.65,54.98,1,0,0,0,0,,11742,,,,,,,0.0,77.0,,,,,26,12,16.28,12.6
22:11:41.201,0,-16,12,,397214,45.863163,-73.592888,54.4,19.62,1751497240,,,,100667.93,35.69,54.85,1,0,0,0,0,,11742,,,,,,,0.0,348.0,,,,,23,16,16.28,12.6
22:11:43.072,0,-9,12,,399076,45.863174,-73.59288,54.9,19.99,1751497241,,,,100662.05,35.71,55.34,1,0,0,0,0,,11742,,,,,,,0.0,339.0,,,,,28,14,16.28,12.6
22:11:44.931,0,-11,11,,400938,45.863174,-73.59288,54.96,20.82,1751497243,,,,100662.95,35.74,55.27,1,0,0,0,0,,11742,,,,,,,0.0,330.0,,,,,25,12,16.28,12.6
22:11:46.779,0,-10,12,,402800,45.863163,-73.59288,54.82,21.09,1751497245,,,,100667.34,35.78,54.9,1,0,0,0,0,,11742,,,,,,,0.0,316.0,,,,,22,12,16.28,12.6
22:11:48.645,0,-8,12,,404662,45.863159,-73.59288,55.26,24.21,1751497247,,,,100665.23,35.81,55.08,1,0,0,0,0,,11742,,,,,,,0.0,48.0,,,,,28,13,16.28,12.6
22:11:50.501,0,-6,12,,406523,45.863163,-73.59288,55.42,24.02,1751497249,,,,100667.72,35.83,54.87,1,0,0,0,0,,11742,,,,,,,0.0,39.0,,,,,23,13,16.28,12.6
22:11:52.375,0,-9,12,,408384,45.863167,-73.59288,54.89,23.66,1751497251,,,,100669.54,35.88,54.71,1,0,0,0,0,,11742,,,,,,,0.0,34.0,,,,,23,13,16.28,12.6
22:11:54.235,0,-9,12,,410245,45.863171,-73.59288,55.51,23.96,1751497253,,,,100668.87,35.9,54.77,1,0,0,0,0,,11742,,,,,,,0.0,28.0,,,,,23,14,16.28,12.6
22:11:56.090,0,-9,12,,412106,45.863178,-73.59288,56.72,23.97,1751497254,,,,100667.65,35.93,54.87,1,0,0,0,0,,11742,,,,,,,0.0,22.0,,,,,22,14,16.28,12.6
22:11:57.950,0,-9,12,,413967,45.86319,-73.59288,58.42,23.86,1751497256,,,,100660.05,35.96,55.51,1,0,0,0,0,,11742,,,,,,,0.0,77.0,,,,,23,16,16.28,12.6
22:11:59.810,0,-12,12,,415828,45.863213,-73.59288,64.25,29.01,1751497258,,,,100563.88,35.98,63.56,1,0,0,0,0,,11742,,,,,,,0.0,27.0,,,,,23,14,16.28,12.6
22:12:01.669,0,-24,12,,417689,45.863232,-73.592842,79.92,38.44,1751497260,,,,100428.54,36.02,74.9,1,0,0,0,0,,11742,,,,,,,0.0,27.0,,,,,24,15,16.28,12.6
22:12:03.527,0,-37,11,,419551,45.863178,-73.592728,94.66,43.29,1751497262,,,,100286.22,36.05,86.85,1,0,0,0,0,,11742,,,,,,,0.0,86.0,,,,,24,14,16.28,12.6
22:12:05.412,0,-39,10,,421412,45.863056,-73.592567,105.02,43.7,1751497264,,,,100152.8,36.08,98.05,1,0,0,0,0,,11742,,,,,,,0.0,192.0,,,,,21,18,16.28,12.6
22:12:07.280,0,-47,12,,423294,45.862946,-73.592438,116.95,45.47,1751497266,,,,100002.7,36.1,110.68,1,0,0,0,0,,11742,,,,,,,0.0,266.0,,,,,24,15,16.28,12.6
22:12:09.129,0,-49,11,,425176,45.862896,-73.592308,130.16,41.62,1751497267,,,,99844.87,36.13,123.96,1,0,0,0,0,,11742,,,,,,,0.0,345.0,,,,,23,17,16.28,12.6
22:12:10.994,0,-49,12,,427058,45.86285,-73.592201,142.85,46.78,1751595129,,,,99707.44,36.15,135.55,1,0,0,0,0,,11742,,,,,,,0.0,59.0,,,,,27,18,16.28,12.6
22:12:12.857,0,-60,12,,428920,45.862762,-73.59214,155.32,48.06,1751595131,,,,99541.87,36.18,149.53,1,0,0,0,0,,11742,,,,,,,0.0,64.0,,,,,23,14,16.28,12.6
22:12:14.724,0,-44,11,,430782,45.862583,-73.592041,168.68,60.72,1751595133,,,,99403.55,36.21,161.22,1,0,0,0,0,,11742,,,,,,,0.0,236.0,,,,,23,10,16.28,12.6
22:12:16.664,0,-52,12,,432664,45.862457,-73.591843,179.83,62.62,1751595135,,,,99255.75,36.24,173.72,1,0,0,0,0,,11742,,,,,,,0.0,318.0,,,,,23,14,16.28,12.6
22:12:18.536,0,-54,12,,434546,45.86237,-73.591637,190.31,59.7,1751595137,,,,99131.48,36.27,184.24,1,0,0,0,0,,11742,,,,,,,0.0,330.0,,,,,27,8,16.28,12.6
22:12:20.406,0,-52,12,,436408,45.862293,-73.59153,199.52,60.82,1751595139,,,,99007.95,36.29,194.72,1,0,0,0,0,,11742,,,,,,,0.0,29.0,,,,,25,24,16.28,12.6
22:12:22.253,0,-51,10,,438270,45.862209,-73.591454,210.57,65.5,1751595141,,,,98865.23,36.32,206.83,1,0,0,0,0,,11742,,,,,,,0.0,335.0,,,,,25,17,16.28,12.6
22:12:24.105,0,-61,11,,440152,45.862038,-73.591309,222.35,78.23,1751595142,,,,98719.13,36.35,219.25,1,0,0,0,0,,11742,,,,,,,0.0,193.0,,,,,25,15,16.28,12.6
22:12:25.981,0,-63,11,,442034,45.861897,-73.591103,235.8,69.71,1751595144,,,,98564.8,36.38,232.38,1,0,0,0,0,,11742,,,,,,,0.0,357.0,,,,,22,12,16.28,12.6
22:12:27.863,0,-72,10,,443916,45.861778,-73.590927,247.6,76.21,1751595146,,,,98430.51,36.4,243.82,1,0,0,0,0,,11742,,,,,,,0.0,207.0,,,,,23,15,16.28,12.6
22:12:29.785,0,-64,11,,445798,45.861675,-73.590714,261.22,62.56,1751595148,,,,98282.51,36.42,256.44,1,0,0,0,0,,11742,,,,,,,0.0,28.0,,,,,22,13,16.28,12.6
22:12:31.641,0,-68,11,,447660,45.861557,-73.590614,273.23,63.94,1751595150,,,,98138.73,36.45,268.72,1,0,0,0,0,,11742,,,,,,,0.0,157.0,,,,,19,17,16.28,12.6
22:12:35.038,0,-68,11,,451093,45.861198,-73.590294,295.85,73.19,1751595153,,,,97886.88,36.5,290.26,1,0,0,0,0,,11742,,,,,,,0.0,91.0,,,,,23,15,16.29,12.6
22:12:38.462,0,-68,11,,454516,45.860935,-73.589943,316.83,61.13,1751595157,,,,97632.03,36.55,312.1,1,0,0,0,0,,11742,,,,,,,0.0,339.0,,,,,22,13,16.29,12.6
22:12:41.942,0,-68,11,,457949,45.860607,-73.589737,343.39,58.78,1751595160,,,,97360.58,36.59,335.42,1,0,0,0,0,,11742,,,,,,,0.0,108.0,,,,,24,17,16.29,12.6
22:12:45.331,0,-68,11,,461382,45.860207,-73.589417,363.18,63.09,1751595164,,,,97131.68,36.64,355.12,1,0,0,0,0,,11742,,,,,,,0.0,140.0,,,,,23,13,16.29,12.6
22:12:48.762,0,-68,11,,464815,45.859962,-73.589096,385.19,56.98,1751595167,,,,96860.43,36.68,378.51,1,0,0,0,0,,11742,,,,,,,0.0,344.0,,,,,22,13,16.29,12.6
22:12:52.239,0,-68,11,,468248,45.859619,-73.588783,410.27,79.47,1751595171,,,,96569.19,36.72,403.69,1,0,0,0,0,,11742,,,,,,,0.0,354.0,,,,,24,14,16.29,12.6
22:12:55.631,0,-68,11,,471681,45.859318,-73.588364,432.26,59.79,1751595174,,,,96318.75,36.77,425.39,1,0,0,0,0,,11742,,,,,,,0.0,54.0,,,,,23,12,16.29,12.6
22:12:59.051,0,-68,11,,475104,45.859032,-73.58815,453.59,62.23,1751595177,,,,96055.46,36.81,448.26,1,0,0,0,0,,11742,,,,,,,0.0,260.0,,,,,24,11,16.29,12.6
22:13:02.528,0,-68,11,,478537,45.858589,-73.587814,475.21,66.0,1751595181,,,,95820.0,36.87,468.75,1,0,0,0,0,,11742,,,,,,,0.0,359.0,,,,,27,13,16.29,12.6
22:13:05.918,0,-68,11,,481970,45.858337,-73.587479,498.19,48.04,1751595184,,,,95570.57,36.9,490.5,1,0,0,0,0,,11742,,,,,,,0.0,331.0,,,,,24,15,16.29,12.6
22:13:09.423,0,-68,11,,485403,45.858009,-73.587357,518.45,53.91,1751595188,,,,95334.77,36.96,511.1,1,0,0,0,0,,11742,,,,,,,0.0,114.0,,,,,23,13,16.29,12.6
22:13:10.861,0,-89,-1,,486923,45.857841,-73.58725,527.07,64.8,1751595189,,,,95223.5,36.97,520.84,1,0,0,0,0,,11742,,,,,,,0.0,90.0,,,,,23,13,16.28,12.6
22:13:14.351,0,-89,-1,,490346,45.857525,-73.586929,551.71,63.41,1751595193,,,,94957.66,37.02,544.14,1,0,0,0,0,,11742,,,,,,,0.0,324.0,,,,,27,16,16.29,12.6
22:13:17.743,0,-89,-1,,493779,45.857292,-73.586723,572.97,55.01,1751595196,,,,94719.35,37.06,565.07,1,0,0,0,0,,11742,,,,,,,0.0,249.0,,,,,26,10,16.29,12.6
22:13:21.149,0,-89,-1,,497212,45.856915,-73.58651,598.4,80.25,1751595200,,,,94433.09,37.1,590.27,1,0,0,0,0,,11742,,,,,,,0.0,20.0,,,,,26,15,16.29,12.6
22:13:24.624,0,-89,-1,,500635,45.856655,-73.586258,622.92,95.82,1751595203,,,,94175.65,37.15,612.99,1,0,0,0,0,,11742,,,,,,,0.0,181.0,,,,,21,11,16.29,12.6
22:13:28.028,0,-89,-1,,504068,45.856277,-73.58596,645.1,81.8,1751595206,,,,93921.44,37.19,635.47,1,0,0,0,0,,11742,,,,,,,0.0,309.0,,,,,22,16,16.29,12.6
22:13:31.513,0,-89,-1,,507501,45.856049,-73.585777,668.4,116.07,1751595210,,,,93655.51,37.23,659.04,1,0,0,0,0,,11742,,,,,,,0.0,176.0,,,,,25,19,16.28,12.6
22:13:34.928,0,-89,-1,,510934,45.855705,-73.585571,692.01,89.62,1751595213,,,,93399.82,37.27,681.75,1,0,0,0,0,,11742,,,,,,,0.0,246.0,,,,,21,14,16.28,12.6
22:13:40.295,1,-97,-5,,516347,45.855282,-73.585342,727.35,106.77,1751595219,,,,93015.02,37.34,716.03,1,0,0,0,0,,11742,,,,,,,0.0,127.0,,,,,25,15,16.28,12.6
22:13:43.765,1,-97,-5,,519780,45.854904,-73.585091,750.12,94.38,1751595222,,,,92749.76,37.38,739.73,1,0,0,0,0,,11742,,,,,,,0.0,97.0,,,,,26,14,16.28,12.6
22:13:47.164,1,-97,-5,,523203,45.854633,-73.585014,773.44,99.61,1751595226,,,,92490.67,37.42,762.93,1,0,0,0,0,,11742,,,,,,,0.0,274.0,,,,,27,15,16.28,12.6
22:13:50.584,1,-97,-5,,526636,45.854366,-73.58477,797.33,91.22,1751595229,,,,92224.16,37.45,786.84,1,0,0,0,0,,11742,,,,,,,0.0,296.0,,,,,24,14,16.28,12.6
22:13:54.073,1,-97,-5,,530069,45.854168,-73.584656,819.66,105.36,1751595232,,,,91967.27,37.49,809.95,1,0,0,0,0,,11742,,,,,,,0.0,356.0,,,,,22,13,16.28,12.6
22:13:57.450,1,-97,-5,,533502,45.853809,-73.584335,839.7,99.05,1751595236,,,,91755.3,37.52,829.06,1,0,0,0,0,,11742,,,,,,,0.0,267.0,,,,,28,18,16.28,12.6
22:14:00.940,1,-97,-5,,536935,45.853516,-73.584236,864.38,113.15,1751595239,,,,91497.24,37.57,852.36,1,0,0,0,0,,11742,,,,,,,0.0,26.0,,,,,25,16,16.28,12.6
22:14:04.336,1,-97,-5,,540368,45.853329,-73.583992,888.72,111.29,1751595243,,,,91227.86,37.61,876.75,1,0,0,0,0,,11742,,,,,,,0.0,319.0,,,,,26,14,16.28,12.6
22:14:07.749,1,-97,-5,,543801,45.852951,-73.58374,911.55,108.22,1751595246,,,,90987.14,37.66,898.6,1,0,0,0,0,,11742,,,,,,,0.0,82.0,,,,,21,13,16.28,12.6
22:14:11.243,1,-97,-5,,547234,45.852695,-73.583664,935.27,120.88,1751595250,,,,90728.95,37.69,922.08,1,0,0,0,0,,11742,,,,,,,0.0,37.0,,,,,21,14,16.28,12.6
22:14:14.648,1,-97,-5,,550667,45.852444,-73.583344,956.79,124.4,1751595253,,,,90492.69,37.72,943.61,1,0,0,0,0,,11742,,,,,,,0.0,134.0,,,,,21,13,16.28,12.6
22:14:16.498,0,-79,8,,552549,45.85223,-73.583229,968.91,126.86,1751595255,,,,90364.58,37.74,955.3,1,0,0,0,0,,11742,,,,,,,0.0,125.0,,,,,25,12,16.28,12.6
22:14:18.380,0,-77,8,,554431,45.852074,-73.583183,981.93,146.74,1751595257,,,,90216.42,37.76,968.85,1,0,0,0,0,,11742,,,,,,,0.0,313.0,,,,,23,13,16.28,12.6
22:14:21.838,0,-77,8,,557864,45.851799,-73.582878,1005.27,122.89,1751595260,,,,89950.72,37.79,993.18,1,0,0,0,0,,11742,,,,,,,0.0,200.0,,,,,24,14,16.28,12.6
22:14:23.710,0,-79,6,,559746,45.851551,-73.582809,1017.19,125.73,1751595262,,,,89833.15,37.82,1003.96,1,0,0,0,0,,11742,,,,,,,0.0,265.0,,,,,23,15,16.28,12.6
22:14:25.579,0,-75,9,,561629,45.851387,-73.582779,1027.64,143.46,1751595264,,,,89715.27,37.83,1014.79,1,0,0,0,0,,11742,,,,,,,0.0,263.0,,,,,23,21,16.28,12.6
22:14:27.461,0,-79,3,,563512,45.851269,-73.58271,1040.01,140.33,1751595266,,,,89573.35,37.86,1027.83,1,0,0,0,0,,11742,,,,,,,0.0,313.0,,,,,24,11,16.28,12.6
22:14:30.944,0,-79,3,,566945,45.850937,-73.582413,1065.88,108.32,1751595269,,,,89311.66,37.91,1051.94,1,0,0,0,0,,11742,,,,,,,0.0,154.0,,,,,26,14,16.28,12.6
22:14:32.795,0,-69,11,,568827,45.850739,-73.582359,1077.59,123.77,1751595271,,,,89187.18,37.92,1063.42,1,0,0,0,0,,11742,,,,,,,0.0,233.0,,,,,23,22,16.28,12.6
22:14:34.664,0,-75,8,,570710,45.850594,-73.582336,1089.29,135.13,1751595273,,,,89062.14,37.94,1074.97,1,0,0,0,0,,11742,,,,,,,0.0,284.0,,,,,23,17,16.28,12.6
22:14:36.541,0,-69,11,,572592,45.850475,-73.582214,1103.61,129.72,1751595275,,,,88914.4,37.96,1088.64,1,0,0,0,0,,11742,,,,,,,0.0,2.0,,,,,21,11,16.28,12.6
22:14:40.012,0,-69,11,,576025,45.850124,-73.581955,1126.19,127.25,1751595278,,,,88670.87,37.99,1111.2,1,0,0,0,0,,11742,,,,,,,0.0,176.0,,,,,23,10,16.28,12.6
22:14:43.419,0,-69,11,,579458,45.849873,-73.581841,1150.35,157.76,1751595282,,,,88402.12,38.03,1136.16,1,0,0,0,0,,11742,,,,,,,0.0,332.0,,,,,25,12,16.28,12.6
22:14:46.841,0,-69,11,,582891,45.849583,-73.58152,1172.77,142.22,1751595285,,,,88181.9,38.07,1156.65,1,0,0,0,0,,11742,,,,,,,0.0,172.0,,,,,23,14,16.28,12.6
22:14:48.714,0,-83,2,,584774,45.849361,-73.581406,1187.26,148.27,1751595287,,,,88025.37,38.1,1171.25,1,0,0,0,0,,11742,,,,,,,0.0,251.0,,,,,21,15,16.28,12.6
22:14:52.176,0,-83,2,,588207,45.849045,-73.581223,1212.96,137.96,1751595291,,,,87749.53,38.13,1197.02,1,0,0,0,0,,11742,,,,,,,0.0,8.0,,,,,24,13,16.28,12.6
22:14:55.590,0,-83,2,,591640,45.848629,-73.580948,1237.07,151.57,1751595294,,,,87477.67,38.17,1222.48,1,0,0,0,0,,11742,,,,,,,0.0,260.0,,,,,22,13,16.28,12.6
22:14:59.076,0,-83,2,,595073,45.848389,-73.580605,1260.71,171.84,1751595297,,,,87231.96,38.21,1245.55,1,0,0,0,0,,11742,,,,,,,0.0,84.0,,,,,21,13,16.28,12.6
22:15:02.456,0,-83,2,,598506,45.848034,-73.580292,1283.7,154.03,1751595301,,,,87006.14,38.24,1266.79,1,0,0,0,0,,11742,,,,,,,0.0,8.0,,,,,24,17,16.28,12.6
22:15:05.889,0,-83,2,,601939,45.84774,-73.580025,1309.45,179.68,1751595304,,,,86739.84,38.28,1291.91,1,0,0,0,0,,11742,,,,,,,0.0,159.0,,,,,22,9,16.28,12.6
22:15:09.385,0,-83,2,,605372,45.847515,-73.579811,1331.2,185.27,1751595308,,,,86510.47,38.3,1313.59,1,0,0,0,0,,11742,,,,,,,0.0,70.0,,,,,24,15,16.28,12.6
22:15:10.842,0,-91,-6,,606892,45.847427,-73.579758,1338.19,180.23,1751595309,,,,86422.48,38.32,1321.92,1,0,0,0,0,,11742,,,,,,,0.0,24.0,,,,,23,13,16.28,12.6
22:15:14.307,0,-91,-6,,610325,45.847065,-73.579536,1361.21,189.09,1751595313,,,,86195.77,38.35,1343.41,1,0,0,0,0,,11742,,,,,,,0.0,237.0,,,,,24,14,16.28,12.6
22:15:17.707,0,-91,-6,,613758,45.846886,-73.579208,1382.48,197.68,1751595316,,,,85963.69,38.36,1365.46,1,0,0,0,0,,11742,,,,,,,0.0,128.0,,,,,23,19,16.28,12.6
22:15:21.205,0,-91,-6,,617191,45.846703,-73.579018,1401.46,186.09,1751595319,,,,85761.58,38.41,1384.7,1,0,0,0,0,,11742,,,,,,,0.0,15.0,,,,,23,14,16.28,12.6
22:15:26.126,0,-94,-3,,622144,45.846317,-73.578529,1437.0,194.46,1751595324,,,,85401.95,38.45,1419.03,1,0,0,0,0,,11742,,,,,,,0.0,168.0,,,,,24,15,16.27,12.6
22:15:29.542,0,-94,-3,,625577,45.845997,-73.57827,1459.67,207.6,1751595328,,,,85160.32,38.48,1442.16,1,0,0,0,0,,11742,,,,,,,0.0,169.0,,,,,23,13,16.28,12.6
22:15:33.031,0,-94,-3,,629010,45.845806,-73.578018,1483.04,223.33,1751595331,,,,84911.17,38.51,1466.06,1,0,0,0,0,,11742,,,,,,,0.0,6.0,,,,,23,9,16.28,12.6
22:15:36.393,0,-94,-3,,632443,45.845543,-73.577606,1504.88,215.25,1751595335,,,,84688.38,38.54,1487.49,1,0,0,0,0,,11742,,,,,,,0.0,247.0,,,,,23,12,16.28,12.6
22:15:39.827,0,-94,-3,,635876,45.845325,-73.577438,1527.34,243.67,1751595338,,,,84450.47,38.57,1510.42,1,0,0,0,0,,11742,,,,,,,0.0,20.0,,,,,21,11,16.28,12.6
22:15:43.321,0,-94,-3,,639309,45.845184,-73.577026,1548.6,260.12,1751595342,,,,84240.34,38.6,1530.71,1,0,0,0,0,,11742,,,,,,,0.0,192.0,,,,,25,12,16.28,12.6
22:16:32.450,0,-99,-11,,688476,45.843929,-73.573174,1877.67,24.55,1751595391,,,,80935.93,38.93,1855.39,1,0,0,0,0,,11742,,,,,,,0.0,46.0,,,,,26,14,16.28,12.6
22:16:34.326,0,-75,9,,690359,45.843948,-73.573044,1892.17,17.15,1751595393,,,,80796.23,38.95,1869.35,1,0,0,0,0,,11742,,,,,,,0.0,109.0,,,,,23,13,16.27,12.6
22:16:37.743,0,-75,9,,693792,45.843796,-73.572792,1915.56,34.17,1751595396,,,,80571.19,38.96,1891.88,1,0,0,0,0,,11742,,,,,,,0.0,144.0,,,,,22,14,16.28,12.6
22:16:39.684,0,-65,11,,695674,45.843792,-73.572601,1928.12,22.23,1751595398,,,,80444.55,38.98,1904.59,1,0,0,0,0,,11742,,,,,,,0.0,94.0,,,,,18,16,16.27,12.6
22:16:43.081,0,-65,11,,699107,45.843807,-73.572464,1951.53,17.53,1751595401,,,,80209.26,39.0,1928.23,1,0,0,0,0,,11742,,,,,,,0.0,259.0,,,,,25,13,16.28,12.6
22:16:46.492,0,-65,11,,702540,45.843697,-73.57222,1974.87,30.9,1751595405,,,,79989.36,39.01,1950.37,1,0,0,0,0,,11742,,,,,,,0.0,228.0,,,,,21,9,16.28,12.6
22:16:49.967,0,-65,11,,705973,45.843689,-73.571899,1999.56,7.86,1751595408,,,,79743.91,39.03,1975.15,1,0,0,0,0,,11742,,,,,,,0.0,167.0,,,,,24,14,16.28,12.6
22:16:53.366,0,-65,11,,709406,45.8437,-73.571747,2021.38,32.95,1751595412,,,,79525.1,39.05,1997.29,1,0,0,0,0,,11742,,,,,,,0.0,66.0,,,,,22,11,16.28,12.6
22:16:58.311,0,-92,-4,,714359,45.843628,-73.571373,2053.24,33.15,1751595417,,,,79213.6,39.08,2028.9,1,0,0,0,0,,11742,,,,,,,0.0,355.0,,,,,24,14,16.27,12.6
22:17:01.786,0,-92,-4,,717792,45.843597,-73.571022,2074.76,28.47,1751595420,,,,78993.92,39.09,2051.25,1,0,0,0,0,,11742,,,,,,,0.0,208.0,,,,,23,17,16.28,12.6
22:17:05.191,0,-92,-4,,721225,45.843624,-73.570808,2101.01,17.41,1751595424,,,,78743.69,39.11,2076.77,1,0,0,0,0,,11742,,,,,,,0.0,264.0,,,,,20,12,16.27,12.6
22:17:08.610,0,-92,-4,,724658,45.843639,-73.570633,2125.14,12.01,1751595427,,,,78502.58,39.13,2101.42,1,0,0,0,0,,11742,,,,,,,0.0,127.0,,,,,23,14,16.28,12.6
22:17:12.068,0,-92,-4,,728091,45.843693,-73.570503,2145.46,26.86,1751595430,,,,78309.8,39.15,2121.17,1,0,0,0,0,,11742,,,,,,,0.0,145.0,,,,,21,15,16.28,12.6
22:17:15.476,0,-92,-4,,731524,45.843605,-73.570282,2169.18,25.06,1751595434,,,,78088.41,39.17,2143.9,1,0,0,0,0,,11742,,,,,,,0.0,339.0,,,,,23,13,16.28,12.6
22:17:18.972,0,-92,-4,,734957,45.843567,-73.569939,2194.78,24.98,1751595437,,,,77827.48,39.18,2170.77,1,0,0,0,0,,11742,,,,,,,0.0,144.0,,,,,26,13,16.27,12.6
22:17:22.351,0,-92,-4,,738390,45.843525,-73.56971,2221.05,36.74,1751595441,,,,77599.69,39.19,2194.27,1,0,0,0,0,,11742,,,,,,,0.0,95.0,,,,,23,13,16.27,12.6
22:17:25.764,0,-92,-4,,741823,45.843506,-73.569382,2245.78,16.22,1751595444,,,,77342.8,39.21,2220.85,1,0,0,0,0,,11742,,,,,,,0.0,2.0,,,,,26,11,16.27,12.6
22:17:29.268,0,-92,-4,,745256,45.843525,-73.569054,2268.98,50.28,1751595448,,,,77116.55,39.22,2244.32,1,0,0,0,0,,11742,,,,,,,0.0,270.0,,,,,22,14,16.27,12.6
22:17:32.643,0,-92,-4,,748689,45.84346,-73.568718,2292.5,17.46,1751595451,,,,76885.81,39.23,2268.32,1,0,0,0,0,,11742,,,,,,,0.0,219.0,,,,,24,17,16.27,12.6
22:17:36.122,0,-92,-4,,752122,45.843552,-73.568268,2314.8,38.88,1751595454,,,,76683.59,39.24,2289.39,1,0,0,0,0,,11742,,,,,,,0.0,161.0,,,,,20,15,16.27,12.6
22:17:39.551,0,-92,-4,,755555,45.843613,-73.567833,2334.15,46.36,1751595458,,,,76485.0,39.26,2310.13,1,0,0,0,0,,11742,,,,,,,0.0,118.0,,,,,22,16,16.27,12.6
22:17:42.941,0,-92,-4,,758988,45.843567,-73.567276,2361.58,35.72,1751595461,,,,76240.17,39.28,2335.76,1,0,0,0,0,,11742,,,,,,,0.0,2.0,,,,,24,11,16.27,12.6
22:17:46.419,0,-92,-4,,762421,45.843563,-73.56694,2382.98,25.14,1751595465,,,,76039.04,39.29,2356.86,1,0,0,0,0,,11742,,,,,,,0.0,26.0,,,,,24,13,16.27,12.6
22:17:49.817,0,-92,-4,,765854,45.843647,-73.56649,2403.85,44.98,1751595468,,,,75820.3,39.3,2379.87,1,0,0,0,0,,11742,,,,,,,0.0,225.0,,,,,24,12,16.27,12.6
22:17:53.241,0,-92,-4,,769287,45.843616,-73.566063,2431.08,36.37,1751595472,,,,75581.88,39.33,2405.0,1,0,0,0,0,,11742,,,,,,,0.0,26.0,,,,,23,14,16.27,12.6
22:17:56.730,0,-92,-4,,772720,45.843731,-73.565498,2452.88,48.88,1751595475,,,,75372.09,39.33,2427.17,1,0,0,0,0,,11742,,,,,,,0.0,155.0,,,,,24,13,16.27,12.6
22:18:00.119,0,-92,-4,,776153,45.843674,-73.564934,2473.45,39.23,1751595478,,,,75174.19,39.36,2448.13,1,0,0,0,0,,11742,,,,,,,0.0,204.0,,,,,26,16,16.27,12.6
22:18:03.539,0,-92,-4,,779586,45.843624,-73.564507,2494.04,32.79,1751595482,,,,74998.48,39.37,2466.78,1,0,0,0,0,,11742,,,,,,,0.0,43.0,,,,,23,19,16.27,12.6
22:18:07.010,0,-92,-4,,783019,45.843723,-73.563965,2518.46,50.16,1751595485,,,,74761.05,39.38,2492.03,1,0,0,0,0,,11742,,,,,,,0.0,235.0,,,,,29,12,16.27,12.6
22:18:10.406,0,-92,-4,,786452,45.843678,-73.563438,2542.32,48.92,1751595489,,,,74560.77,39.39,2513.39,1,0,0,0,0,,11742,,,,,,,0.0,57.0,,,,,23,15,16.27,12.6
22:18:13.896,0,-92,-4,,789885,45.843624,-73.562973,2558.59,36.45,1751595492,,,,74382.84,39.4,2532.39,1,0,0,0,0,,11742,,,,,,,0.0,84.0,,,,,19,13,16.27,12.6
22:18:15.764,0,-75,10,,791767,45.843662,-73.562653,2571.96,52.23,1751595494,,,,74267.15,39.41,2544.77,1,0,0,0,0,,11742,,,,,,,0.0,259.0,,,,,26,15,16.27,12.6
22:18:19.153,0,-75,10,,795200,45.84367,-73.561981,2596.09,45.19,1751595494,,,,74040.31,39.42,2569.09,1,0,0,0,0,,11742,,,,,,,0.0,297.0,,,,,25,17,16.27,12.6
22:18:22.586,0,-75,10,,798633,45.843628,-73.561501,2617.48,40.22,1751595501,,,,73841.91,39.43,2590.41,1,0,0,0,0,,11742,,,,,,,0.0,293.0,,,,,23,15,16.27,12.6
22:18:26.036,0,-75,10,,802066,45.843628,-73.561005,2638.53,52.21,1751595504,,,,73645.56,39.44,2611.55,1,0,0,0,0,,11742,,,,,,,0.0,81.0,,,,,22,15,16.27,12.6
22:18:29.452,0,-75,10,,805499,45.843582,-73.560341,2664.53,56.58,1751595508,,,,73395.8,39.44,2638.51,1,0,0,0,0,,11742,,,,,,,0.0,289.0,,,,,25,19,16.27,12.6
22:18:31.334,0,-72,10,,807381,45.843563,-73.559914,2677.18,66.95,1751595510,,,,73297.28,39.46,2649.17,1,0,0,0,0,,11742,,,,,,,0.0,34.0,,,,,24,13,16.27,12.6
22:18:34.812,0,-72,10,,810814,45.843609,-73.559212,2697.0,36.74,1751595513,,,,73109.97,39.45,2669.46,1,0,0,0,0,,11742,,,,,,,0.0,234.0,,,,,19,17,16.27,12.6
22:18:38.203,0,-72,10,,814247,45.843533,-73.558647,2720.21,60.8,1751595517,,,,72890.36,39.47,2693.3,1,0,0,0,0,,11742,,,,,,,0.0,280.0,,,,,23,11,16.27,12.6
22:18:41.692,0,-72,10,,817680,45.843506,-73.558113,2746.98,43.47,1751595520,,,,72657.45,39.47,2718.65,1,0,0,0,0,,11742,,,,,,,0.0,331.0,,,,,26,14,16.27,12.6
22:18:45.097,0,-72,10,,821113,45.843468,-73.55735,2768.53,51.78,1751595523,,,,72459.23,39.49,2740.28,1,0,0,0,0,,11742,,,,,,,0.0,112.0,,,,,22,14,16.27,12.6
22:18:48.500,0,-72,10,,824546,45.843506,-73.556931,2794.17,37.76,1751595527,,,,72264.93,39.5,2761.52,1,0,0,0,0,,11742,,,,,,,0.0,8.0,,,,,23,12,16.27,12.6
22:18:51.982,0,-72,10,,827979,45.843479,-73.556358,2817.34,42.57,1751595530,,,,72031.34,39.51,2787.13,1,0,0,0,0,,11742,,,,,,,0.0,310.0,,,,,24,15,16.27,12.6
22:18:53.840,0,-73,10,,829862,45.843525,-73.556068,2829.15,51.8,1751595532,,,,71904.54,39.51,2801.05,1,0,0,0,0,,11742,,,,,,,0.0,35.0,,,,,23,13,16.27,12.6
22:18:57.237,0,-73,10,,833295,45.843575,-73.555519,2853.86,36.78,1751595536,,,,71686.32,39.51,2825.07,1,0,0,0,0,,11742,,,,,,,0.0,233.0,,,,,24,17,16.27,12.6
22:19:00.729,0,-73,10,,836728,45.843578,-73.555214,2878.57,35.49,1751595539,,,,71508.16,39.52,2844.72,1,0,0,0,0,,11742,,,,,,,0.0,96.0,,,,,25,17,16.27,12.6
22:19:04.133,0,-73,10,,840161,45.843475,-73.554649,2901.46,43.99,1751595542,,,,71293.48,39.53,2868.45,1,0,0,0,0,,11742,,,,,,,0.0,282.0,,,,,24,17,16.27,12.6
22:19:07.538,0,-73,10,,843594,45.84346,-73.554237,2922.55,36.25,1751595546,,,,71081.16,39.54,2891.97,1,0,0,0,0,,11742,,,,,,,0.0,102.0,,,,,23,15,16.27,12.6
22:19:11.024,0,-73,10,,847027,45.843403,-73.553757,2947.94,46.14,1751595549,,,,70836.59,39.55,2919.14,1,0,0,0,0,,11742,,,,,,,0.0,27.0,,,,,24,15,16.27,12.6
22:19:14.425,0,-73,10,,850460,45.843285,-73.553185,2970.16,50.76,1751595553,,,,70652.29,39.55,2939.67,1,0,0,0,0,,11742,,,,,,,0.0,82.0,,,,,23,15,16.27,12.6
22:19:17.916,0,-73,10,,853893,45.843262,-73.552841,2992.59,25.42,1751595556,,,,70456.09,39.55,2961.56,1,0,0,0,0,,11742,,,,,,,0.0,84.0,,,,,23,14,16.27,12.6
22:19:21.300,0,-73,10,,857326,45.843185,-73.552437,3015.34,50.01,1751595560,,,,70264.51,39.55,2982.99,1,0,0,0,0,,11742,,,,,,,0.0,57.0,,,,,22,12,16.27,12.6
22:19:24.714,0,-73,10,,860759,45.843128,-73.55191,3042.38,32.57,1751595563,,,,70040.75,39.56,3008.08,1,0,0,0,0,,11742,,,,,,,0.0,41.0,,,,,25,13,16.27,12.6
22:19:28.195,0,-73,10,,864192,45.843166,-73.551376,3063.64,49.82,1751595566,,,,69816.88,39.56,3033.25,1,0,0,0,0,,11742,,,,,,,0.0,103.0,,,,,26,13,16.27,12.6
22:19:30.045,0,-98,-11,,866075,45.843155,-73.551132,3076.5,23.57,1751595568,,,,69704.55,39.55,3045.9,1,0,0,0,0,,11742,,,,,,,0.0,261.0,,,,,24,15,16.27,12.6
22:19:33.451,0,-98,-11,,869508,45.843079,-73.550735,3101.39,57.45,1751595572,,,,69493.98,39.55,3069.66,1,0,0,0,0,,11742,,,,,,,0.0,49.0,,,,,23,12,16.27,12.6
22:19:36.930,0,-98,-11,,872941,45.842968,-73.550079,3127.88,45.3,1751595575,,,,69301.25,39.55,3091.46,1,0,0,0,0,,11742,,,,,,,0.0,174.0,,,,,24,16,16.27,12.6
22:19:40.329,0,-98,-11,,876374,45.8428,-73.549652,3148.98,30.71,1751595579,,,,69109.49,39.56,3113.2,1,0,0,0,0,,11742,,,,,,,0.0,240.0,,,,,26,16,16.27,12.6
22:19:43.834,0,-98,-11,,879807,45.842777,-73.549232,3170.07,39.17,1751595582,,,,68887.5,39.55,3138.43,1,0,0,0,0,,11742,,,,,,,0.0,341.0,,,,,22,12,16.27,12.6
22:19:47.203,0,-98,-11,,883240,45.842712,-73.548637,3192.98,59.54,1751595586,,,,68692.02,39.53,3160.7,1,0,0,0,0,,11742,,,,,,,0.0,337.0,,,,,24,15,16.27,12.6
22:19:50.628,0,-98,-11,,886673,45.842636,-73.548134,3218.43,40.93,1751595589,,,,68473.06,39.55,3185.7,1,0,0,0,0,,11742,,,,,,,0.0,247.0,,,,,21,12,16.27,12.6
22:19:54.098,0,-98,-11,,890106,45.842609,-73.547432,3239.69,54.17,1751595592,,,,68274.9,39.54,3208.39,1,0,0,0,0,,11742,,,,,,,0.0,95.0,,,,,23,11,16.27,12.6
22:19:57.499,0,-98,-11,,893539,45.842457,-73.546967,3267.32,44.25,1751595596,,,,68089.59,39.54,3229.65,1,0,0,0,0,,11742,,,,,,,0.0,53.0,,,,,23,14,16.27,12.6
22:20:00.928,0,-98,-11,,896972,45.842373,-73.546448,3284.64,45.48,1751595599,,,,67895.47,39.53,3251.97,1,0,0,0,0,,11742,,,,,,,0.0,100.0,,,,,24,14,16.27,12.6
22:20:04.379,0,-98,-11,,900405,45.842255,-73.545822,3309.42,56.72,1751595603,,,,67677.47,39.53,3277.11,1,0,0,0,0,,11742,,,,,,,0.0,307.0,,,,,23,12,16.27,12.6
22:20:07.795,0,-98,-11,,903838,45.842175,-73.54541,3333.1,33.66,1751595606,,,,67476.68,39.52,3300.31,1,0,0,0,0,,11742,,,,,,,0.0,46.0,,,,,23,16,16.27,12.6
22:20:09.313,0,-88,-2,,905358,45.842175,-73.545219,3345.08,40.83,1751595608,,,,67416.89,39.53,3307.23,1,0,0,0,0,,11742,,,,,,,0.0,309.0,,,,,25,8,16.26,12.6
22:20:12.746,0,-88,-2,,908791,45.842094,-73.544762,3360.56,39.17,1751595611,,,,67244.77,39.52,3327.19,1,0,0,0,0,,11742,,,,,,,0.0,31.0,,,,,25,15,16.27,12.6
22:20:16.216,0,-88,-2,,912224,45.841869,-73.544189,3384.17,58.48,1751595615,,,,67044.31,39.51,3350.47,1,0,0,0,0,,11742,,,,,,,0.0,230.0,,,,,21,16,16.27,12.6
22:20:19.601,0,-88,-2,,915657,45.841797,-73.543625,3410.58,38.87,1751595618,,,,66831.22,39.51,3375.29,1,0,0,0,0,,11742,,,,,,,0.0,86.0,,,,,23,16,16.27,12.6
22:20:23.104,0,-88,-2,,919090,45.841557,-73.54319,3435.56,50.87,1751595621,,,,66620.32,39.51,3399.92,1,0,0,0,0,,11742,,,,,,,0.0,315.0,,,,,26,10,16.27,12.6
22:20:26.492,0,-88,-2,,922523,45.841461,-73.542534,3457.26,63.56,1751595625,,,,66438.61,39.5,3421.19,1,0,0,0,0,,11742,,,,,,,0.0,148.0,,,,,23,17,16.27,12.6
22:20:29.912,0,-88,-2,,925956,45.841221,-73.541885,3483.74,43.36,1751595628,,,,66275.24,39.5,3440.34,1,0,0,0,0,,11742,,,,,,,0.0,176.0,,,,,19,12,16.27,12.6
22:20:31.421,0,-91,-6,,927476,45.841141,-73.541702,3485.39,34.28,1751595630,,,,66190.7,39.49,3450.28,1,0,0,0,0,,11742,,,,,,,0.0,132.0,,,,,23,17,16.26,12.6
22:20:34.907,0,-91,-6,,930909,45.840996,-73.541199,3517.68,56.82,1751595633,,,,65977.21,39.5,3475.4,1,0,0,0,0,,11742,,,,,,,0.0,143.0,,,,,24,17,16.27,12.6
22:20:38.321,0,-91,-6,,934342,45.840733,-73.540733,3542.49,36.72,1751595637,,,,65782.3,39.48,3498.4,1,0,0,0,0,,11742,,,,,,,0.0,216.0,,,,,29,15,16.27,12.6
22:20:41.731,0,-91,-6,,937775,45.840633,-73.540154,3567.1,60.0,1751595640,,,,65583.6,39.47,3521.9,1,0,0,0,0,,11742,,,,,,,0.0,183.0,,,,,24,15,16.26,12.6
22:20:45.216,0,-91,-6,,941208,45.840332,-73.539619,3585.44,47.08,1751595644,,,,65430.52,39.47,3540.04,1,0,0,0,0,,11742,,,,,,,0.0,235.0,,,,,22,14,16.26,12.6
22:20:48.616,0,-91,-6,,944641,45.84016,-73.539162,3598.54,41.95,1751595647,,,,65235.07,39.46,3563.26,1,0,0,0,0,,11742,,,,,,,0.0,145.0,,,,,22,19,16.26,12.6
22:20:52.030,0,-91,-6,,948074,45.839977,-73.538673,3625.95,44.06,1751595650,,,,65026.05,39.46,3588.14,1,0,0,0,0,,11742,,,,,,,0.0,51.0,,,,,21,13,16.26,12.6
22:20:55.497,0,-91,-6,,951507,45.839828,-73.538345,3650.27,38.98,1751595654,,,,64813.89,39.45,3613.47,1,0,0,0,0,,11742,,,,,,,0.0,307.0,,,,,23,14,16.26,12.6
22:20:58.896,0,-91,-6,,954940,45.839653,-73.537819,3684.56,36.8,1751595657,,,,64599.48,39.45,3639.14,1,0,0,0,0,,11742,,,,,,,0.0,288.0,,,,,22,12,16.26,12.6
22:21:02.391,0,-91,-6,,958373,45.839622,-73.537247,3700.02,63.61,1751595661,,,,64424.02,39.42,3660.19,1,0,0,0,0,,11742,,,,,,,0.0,90.0,,,,,27,16,16.26,12.6
22:21:05.797,0,-91,-6,,961806,45.839417,-73.536758,3724.46,36.54,1751595664,,,,64221.61,39.42,3684.54,1,0,0,0,0,,11742,,,,,,,0.0,26.0,,,,,23,16,16.26,12.6
22:21:07.650,0,-74,9,,963688,45.839375,-73.5364,3733.08,70.48,1751595666,,,,64139.38,39.42,3694.45,1,0,0,0,0,,11742,,,,,,,0.0,175.0,,,,,23,20,16.26,12.6
22:21:11.131,0,-74,9,,967121,45.839233,-73.535759,3750.29,46.79,1751595669,,,,63997.94,39.41,3711.52,1,0,0,0,0,,11742,,,,,,,0.0,169.0,,,,,26,13,16.26,12.6
22:21:12.597,0,-89,-5,,968641,45.839138,-73.535545,3765.11,55.3,1751595671,,,,63927.55,39.41,3720.02,1,0,0,0,0,,11742,,,,,,,0.0,195.0,,,,,23,12,16.26,12.6
22:21:16.066,0,-89,-5,,972074,45.838928,-73.535088,3778.66,33.96,1751595674,,,,63768.47,39.4,3739.27,1,0,0,0,0,,11742,,,,,,,0.0,304.0,,,,,27,13,16.26,12.6
22:21:17.928,0,-82,5,,973957,45.838879,-73.534798,3797.45,60.12,1751595676,,,,63663.09,39.39,3752.05,1,0,0,0,0,,11742,,,,,,,0.0,60.0,,,,,24,17,16.26,12.6
22:21:21.346,0,-82,5,,977390,45.838779,-73.53405,3810.1,51.76,1751595680,,,,63515.77,39.39,3769.93,1,0,0,0,0,,11742,,,,,,,0.0,259.0,,,,,26,13,16.26,12.6
22:21:24.822,0,-82,5,,980823,45.838715,-73.533478,3832.45,37.47,1751595683,,,,63341.89,39.38,3791.09,1,0,0,0,0,,11742,,,,,,,0.0,161.0,,,,,23,17,16.26,12.6
22:21:28.212,0,-82,5,,984256,45.838593,-73.533089,3855.41,51.33,1751595687,,,,63149.75,39.37,3814.52,1,0,0,0,0,,11742,,,,,,,0.0,247.0,,,,,22,14,16.26,12.6
22:21:31.685,0,-82,5,,987689,45.83852,-73.532516,3880.55,23.99,1751595690,,,,62962.11,39.36,3837.45,1,0,0,0,0,,11742,,,,,,,0.0,42.0,,,,,22,12,16.26,12.6
22:21:35.102,0,-82,5,,991122,45.83836,-73.532211,3898.41,49.54,1751595693,,,,62824.28,39.36,3854.34,1,0,0,0,0,,11742,,,,,,,0.0,298.0,,,,,24,14,16.26,12.6
22:21:38.512,0,-82,5,,994555,45.838139,-73.531631,3920.25,48.8,1751595697,,,,62646.69,39.36,3876.13,1,0,0,0,0,,11742,,,,,,,0.0,279.0,,,,,25,13,16.26,12.6
22:21:41.997,0,-82,5,,997988,45.838093,-73.531036,3941.42,42.11,1751595700,,,,62475.19,39.35,3897.23,1,0,0,0,0,,11742,,,,,,,0.0,154.0,,,,,23,18,16.26,12.6
22:21:45.423,0,-82,5,,1001421,45.838001,-73.53067,3962.07,34.85,1751595704,,,,62313.66,39.33,3917.15,1,0,0,0,0,,11742,,,,,,,0.0,297.0,,,,,22,19,16.26,12.6
22:21:48.804,0,-82,5,,1004854,45.837749,-73.530205,3984.99,53.69,1751595707,,,,62132.66,39.32,3939.51,1,0,0,0,0,,11742,,,,,,,0.0,226.0,,,,,23,12,16.26,12.6
22:21:52.295,0,-82,5,,1008287,45.837605,-73.529655,4011.21,49.5,1751595711,,,,61930.05,39.33,3964.61,1,0,0,0,0,,11742,,,,,,,0.0,193.0,,,,,22,8,16.26,12.6
22:21:53.814,0,-89,-4,,1009807,45.837486,-73.529366,4019.11,67.87,1751595712,,,,61866.52,39.31,3972.49,1,0,0,0,0,,11742,,,,,,,0.0,151.0,,,,,20,18,16.26,12.6
22:21:57.215,0,-89,-4,,1013240,45.837215,-73.528778,4037.12,45.13,1751595716,,,,61720.78,39.31,3990.6,1,0,0,0,0,,11742,,,,,,,0.0,149.0,,,,,23,10,16.26,12.6
22:22:00.631,0,-89,-4,,1016673,45.836971,-73.528397,4060.17,39.4,1751595719,,,,61539.16,39.29,4013.22,1,0,0,0,0,,11742,,,,,,,0.0,326.0,,,,,23,16,16.26,12.6
22:22:04.118,0,-89,-4,,1020106,45.83683,-73.52784,4083.39,61.18,1751595722,,,,61351.83,39.29,4036.6,1,0,0,0,0,,11742,,,,,,,0.0,112.0,,,,,25,19,16.26,12.6
22:22:07.496,0,-89,-4,,1023539,45.836494,-73.527374,4109.34,49.83,1751595726,,,,61193.74,39.28,4056.38,1,0,0,0,0,,11742,,,,,,,0.0,262.0,,,,,23,13,16.26,12.6
22:22:10.996,0,-89,-4,,1026972,45.836227,-73.526909,4128.2,44.7,1751595729,,,,61002.41,39.27,4080.37,1,0,0,0,0,,11742,,,,,,,0.0,344.0,,,,,29,16,16.26,12.6
22:22:14.392,0,-89,-4,,1030405,45.836052,-73.526321,4153.51,68.29,1751595733,,,,60812.65,39.26,4104.23,1,0,0,0,0,,11742,,,,,,,0.0,38.0,,,,,24,13,16.26,12.6
22:22:17.795,0,-89,-4,,1033838,45.835732,-73.525703,4176.33,51.63,1751595736,,,,60633.86,39.25,4126.76,1,0,0,0,0,,11742,,,,,,,0.0,22.0,,,,,22,13,16.26,12.6
22:22:21.282,0,-89,-4,,1037271,45.835472,-73.525284,4194.75,38.4,1751595740,,,,60483.15,39.24,4145.79,1,0,0,0,0,,11742,,,,,,,0.0,138.0,,,,,23,13,16.26,12.6
22:22:24.668,0,-89,-4,,1040704,45.835323,-73.524712,4216.98,59.9,1751595743,,,,60305.38,39.21,4168.3,1,0,0,0,0,,11742,,,,,,,0.0,106.0,,,,,26,13,16.26,12.6
22:22:28.094,0,-89,-4,,1044137,45.834999,-73.524132,4244.6,58.27,1751595746,,,,60133.95,39.22,4190.05,1,0,0,0,0,,11742,,,,,,,0.0,195.0,,,,,26,13,16.26,12.6
22:22:31.581,0,-89,-4,,1047570,45.834717,-73.523727,4264.23,45.82,1751595750,,,,59957.12,39.21,4212.54,1,0,0,0,0,,11742,,,,,,,0.0,47.0,,,,,22,14,16.26,12.6
22:22:34.960,0,-89,-4,,1051003,45.834362,-73.523201,4288.84,48.02,1751595753,,,,59769.44,39.18,4236.47,1,0,0,0,0,,11742,,,,,,,0.0,240.0,,,,,23,14,16.26,12.6
22:22:38.444,0,-89,-4,,1054436,45.834183,-73.522789,4313.4,62.51,1751595757,,,,59577.8,39.17,4260.96,1,0,0,0,0,,11742,,,,,,,0.0,79.0,,,,,23,14,16.26,12.6
22:22:41.845,0,-89,-4,,1057869,45.833828,-73.522362,4337.29,31.17,1751595760,,,,59390.56,39.16,4284.95,1,0,0,0,0,,11742,,,,,,,0.0,310.0,,,,,23,13,16.26,12.6
22:22:43.709,0,-71,3,,1059752,45.833733,-73.522156,4353.09,52.3,1751595762,,,,59292.01,39.16,4297.61,1,0,0,0,0,,11742,,,,,,,0.0,85.0,,,,,22,16,16.25,12.6
22:22:47.199,0,-71,3,,1063185,45.833515,-73.521614,4372.67,30.61,1751595765,,,,59124.29,39.14,4319.18,1,0,0,0,0,,11742,,,,,,,0.0,319.0,,,,,22,13,16.26,12.6
22:22:50.614,0,-71,3,,1066618,45.833336,-73.521133,4394.52,60.37,1751595769,,,,58961.88,39.13,4340.12,1,0,0,0,0,,11742,,,,,,,0.0,179.0,,,,,26,12,16.26,12.6
22:22:54.009,0,-71,3,,1070051,45.833038,-73.520782,4419.4,42.39,1751595772,,,,58774.14,39.11,4364.38,1,0,0,0,0,,11742,,,,,,,0.0,333.0,,,,,26,16,16.26,12.6
22:22:55.529,0,-85,-3,,1071571,45.832882,-73.520523,4430.33,72.65,1751595774,,,,58688.72,39.11,4375.44,1,0,0,0,0,,11742,,,,,,,0.0,58.0,,,,,21,17,16.25,12.6
22:22:59.015,0,-85,-3,,1075004,45.832619,-73.51989,4453.19,36.58,1751595777,,,,58508.45,39.1,4398.83,1,0,0,0,0,,11742,,,,,,,0.0,311.0,,,,,24,14,16.26,12.6
22:23:02.395,0,-85,-3,,1078437,45.832291,-73.519516,4473.87,69.1,1751595781,,,,58355.51,39.08,4418.71,1,0,0,0,0,,11742,,,,,,,0.0,288.0,,,,,22,15,16.26,12.6
22:23:03.946,0,-88,-4,,1079957,45.832119,-73.519279,4484.87,62.57,1751595782,,,,58298.7,39.07,4426.11,1,0,0,0,0,,11742,,,,,,,0.0,58.0,,,,,23,19,16.25,12.6
22:23:07.354,0,-88,-4,,1083390,45.831825,-73.518639,4500.35,54.8,1751595786,,,,58152.32,39.07,4445.19,1,0,0,0,0,,11742,,,,,,,0.0,71.0,,,,,23,13,16.26,12.6
22:23:10.829,0,-88,-4,,1086823,45.831589,-73.518257,4527.36,54.84,1751595789,,,,57967.02,39.04,4469.41,1,0,0,0,0,,11742,,,,,,,0.0,286.0,,,,,21,14,16.26,12.6
22:23:14.238,0,-88,-4,,1090256,45.831257,-73.517746,4550.57,39.33,1751595793,,,,57773.61,39.04,4494.75,1,0,0,0,0,,11742,,,,,,,0.0,100.0,,,,,28,12,16.26,12.6
22:23:17.647,0,-88,-4,,1093689,45.830967,-73.517418,4576.52,65.82,1751595796,,,,57584.96,39.02,4519.54,1,0,0,0,0,,11742,,,,,,,0.0,227.0,,,,,22,12,16.26,12.6
22:23:21.112,0,-88,-4,,1097122,45.830605,-73.516747,4598.56,50.87,1751595799,,,,57413.7,39.0,4542.1,1,0,0,0,0,,11742,,,,,,,0.0,107.0,,,,,23,13,16.26,12.6
22:23:24.527,0,-88,-4,,1100555,45.830414,-73.516289,4627.29,48.8,1751595803,,,,57243.96,39.0,4564.51,1,0,0,0,0,,11742,,,,,,,0.0,317.0,,,,,22,14,16.26,12.6
22:23:28.011,0,-88,-4,,1103988,45.830002,-73.515785,4647.52,62.64,1751595806,,,,57070.08,38.97,4587.52,1,0,0,0,0,,11742,,,,,,,0.0,222.0,,,,,25,12,16.26,12.6
22:23:29.467,0,-88,-2,,1105508,45.829891,-73.515511,4656.19,62.38,1751595808,,,,56994.09,38.97,4597.6,1,0,0,0,0,,11742,,,,,,,0.0,105.0,,,,,26,13,16.25,12.6
22:23:32.938,0,-88,-2,,1108941,45.829685,-73.5149,4682.78,48.2,1751595811,,,,56835.34,38.95,4618.68,1,0,0,0,0,,11742,,,,,,,0.0,74.0,,,,,22,12,16.26,12.6
22:23:36.335,0,-88,-2,,1112374,45.829353,-73.514442,4702.68,64.93,1751595815,,,,56657.8,38.93,4642.32,1,0,0,0,0,,11742,,,,,,,0.0,312.0,,,,,22,14,16.26,12.6
22:23:39.832,0,-88,-2,,1115807,45.82901,-73.513748,4722.51,69.36,1751595818,,,,56515.32,38.92,4661.33,1,0,0,0,0,,11742,,,,,,,0.0,341.0,,,,,29,18,16.26,12.6
22:23:43.207,0,-88,-2,,1119240,45.828781,-73.513184,4743.55,48.71,1751595822,,,,56351.27,38.91,4683.27,1,0,0,0,0,,11742,,,,,,,0.0,42.0,,,,,23,10,16.26,12.6
22:23:46.632,0,-88,-2,,1122673,45.828358,-73.512672,4764.04,63.69,1751595825,,,,56203.95,38.88,4703.01,1,0,0,0,0,,11742,,,,,,,0.0,150.0,,,,,21,15,16.26,12.6
22:23:48.569,0,-77,5,,1124556,45.828163,-73.512459,4777.51,49.85,1751595827,,,,56137.97,38.87,4711.87,1,0,0,0,0,,11742,,,,,,,0.0,253.0,,,,,21,14,16.25,12.6
22:23:51.973,0,-77,5,,1127989,45.827888,-73.512047,4792.41,48.65,1751595830,,,,56000.62,38.87,4730.34,1,0,0,0,0,,11742,,,,,,,0.0,80.0,,,,,20,12,16.25,12.6
22:23:55.371,0,-77,5,,1131422,45.827644,-73.511452,4813.07,64.84,1751595834,,,,55842.65,38.85,4751.62,1,0,0,0,0,,11742,,,,,,,0.0,137.0,,,,,24,13,16.25,12.6
22:23:58.865,0,-77,5,,1134855,45.827255,-73.510941,4837.03,46.71,1751595837,,,,55668.39,38.83,4775.15,1,0,0,0,0,,11742,,,,,,,0.0,231.0,,,,,23,13,16.25,12.6
22:24:02.247,0,-77,5,,1138288,45.827053,-73.510567,4856.97,37.81,1751595841,,,,55531.38,38.82,4793.69,1,0,0,0,0,,11742,,,,,,,0.0,65.0,,,,,22,14,16.25,12.6
22:24:05.680,0,-77,5,,1141721,45.826752,-73.510239,4874.79,55.12,1751595844,,,,55398.84,38.8,4811.67,1,0,0,0,0,,11742,,,,,,,0.0,147.0,,,,,22,16,16.25,12.6
22:24:07.629,0,-76,2,,1143604,45.826519,-73.509949,4886.84,65.16,1751595846,,,,55308.17,38.79,4823.98,1,0,0,0,0,,11742,,,,,,,0.0,130.0,,,,,26,13,16.25,12.6
22:24:10.996,0,-76,2,,1147037,45.826248,-73.509384,4910.79,51.67,1751595849,,,,55142.31,38.78,4846.56,1,0,0,0,0,,11742,,,,,,,0.0,72.0,,,,,21,13,16.25,12.6
22:24:14.430,0,-76,2,,1150470,45.82605,-73.508873,4929.79,38.91,1751595853,,,,55001.28,38.78,4865.79,1,0,0,0,0,,11742,,,,,,,0.0,314.0,,,,,22,15,16.25,12.6
22:24:16.360,0,-77,2,,1152353,45.825886,-73.508675,4945.79,60.43,1751595855,,,,54906.23,38.76,4878.78,1,0,0,0,0,,11742,,,,,,,0.0,323.0,,,,,27,14,16.25,12.6
22:24:19.745,0,-77,2,,1155786,45.825531,-73.507988,4965.13,60.44,1751595858,,,,54760.6,38.74,4898.72,1,0,0,0,0,,11742,,,,,,,0.0,60.0,,,,,24,18,16.25,12.6
22:24:21.628,0,-75,7,,1157668,45.825371,-73.507706,4976.23,56.98,1751595860,,,,54675.06,38.73,4910.44,1,0,0,0,0,,11742,,,,,,,0.0,170.0,,,,,23,13,16.25,12.6
22:24:25.102,0,-75,7,,1161101,45.82518,-73.507187,4994.5,39.23,1751595863,,,,54539.77,38.71,4929.03,1,0,0,0,0,,11742,,,,,,,0.0,84.0,,,,,24,13,16.25,12.6
22:24:28.493,0,-75,7,,1164534,45.824837,-73.506836,5020.94,57.68,1751595867,,,,54374.09,38.68,4951.83,1,0,0,0,0,,11742,,,,,,,0.0,7.0,,,,,24,13,16.25,12.6
22:24:31.927,0,-75,7,,1167967,45.824409,-73.506302,5037.33,62.27,1751595870,,,,54239.74,38.67,4970.36,1,0,0,0,0,,11742,,,,,,,0.0,128.0,,,,,23,12,16.25,12.6
22:24:35.382,0,-75,7,,1171400,45.824116,-73.505852,5061.05,53.16,1751595874,,,,54075.25,38.65,4993.11,1,0,0,0,0,,11742,,,,,,,0.0,9.0,,,,,23,12,16.25,12.6
22:24:37.244,0,-77,2,,1173282,45.823895,-73.505707,5074.61,48.82,1751595876,,,,53973.63,38.64,5007.18,1,0,0,0,0,,11742,,,,,,,0.0,261.0,,,,,22,11,16.25,12.6
22:24:40.674,0,-77,2,,1176715,45.823685,-73.505371,5099.46,45.1,1751595879,,,,53787.83,38.61,5032.98,1,0,0,0,0,,11742,,,,,,,0.0,335.0,,,,,30,15,16.25,12.6
22:24:44.128,0,-77,2,,1180148,45.823349,-73.504814,5122.91,62.73,1751595882,,,,53642.37,38.59,5053.22,1,0,0,0,0,,11742,,,,,,,0.0,152.0,,,,,23,15,16.25,12.6
22:24:47.540,0,-77,2,,1183581,45.823063,-73.504234,5139.19,45.73,1751595886,,,,53513.3,38.57,5071.23,1,0,0,0,0,,11742,,,,,,,0.0,160.0,,,,,17,15,16.25,12.6
22:24:51.016,0,-77,2,,1187014,45.822815,-73.503922,5161.69,48.46,1751595889,,,,53353.85,38.56,5093.52,1,0,0,0,0,,11742,,,,,,,0.0,68.0,,,,,24,10,16.25,12.6
22:24:54.417,0,-77,2,,1190447,45.822449,-73.503593,5188.29,43.7,1751595893,,,,53167.14,38.53,5119.68,1,0,0,0,0,,11742,,,,,,,0.0,274.0,,,,,26,13,16.25,12.6
22:24:57.840,0,-77,2,,1193880,45.822025,-73.503372,5207.71,55.06,1751595896,,,,53041.68,38.52,5137.31,1,0,0,0,0,,11742,,,,,,,0.0,344.0,,,,,22,14,16.25,12.6
22:24:59.781,0,-76,8,,1195763,45.821846,-73.503235,5220.25,34.89,1751595898,,,,52966.51,38.51,5147.88,1,0,0,0,0,,11742,,,,,,,0.0,296.0,,,,,24,13,16.25,12.6
22:25:03.180,0,-76,8,,1199196,45.821526,-73.502769,5241.53,69.74,1751595901,,,,52794.65,38.49,5172.11,1,0,0,0,0,,11742,,,,,,,0.0,156.0,,,,,23,17,16.25,12.6
22:25:06.589,0,-76,8,,1202629,45.821106,-73.502243,5260.41,62.92,1751595905,,,,52669.73,38.48,5189.75,1,0,0,0,0,,11742,,,,,,,0.0,250.0,,,,,23,14,16.25,12.6
22:25:10.055,0,-76,8,,1206062,45.820713,-73.5019,5283.21,44.74,1751595908,,,,52512.3,38.46,5212.04,1,0,0,0,0,,11742,,,,,,,0.0,244.0,,,,,23,11,16.25,12.6
22:25:13.455,0,-76,8,,1209495,45.820477,-73.50145,5302.03,45.47,1751595912,,,,52384.14,38.44,5230.23,1,0,0,0,0,,11742,,,,,,,0.0,352.0,,,,,22,16,16.25,12.6
22:25:16.941,0,-76,8,,1212928,45.820225,-73.501068,5320.1,45.94,1751595915,,,,52260.0,38.43,5247.88,1,0,0,0,0,,11742,,,,,,,0.0,196.0,,,,,25,13,16.25,12.6
22:25:20.345,0,-76,8,,1216361,45.819828,-73.500641,5346.24,66.41,1751595919,,,,52088.7,38.4,5272.29,1,0,0,0,0,,11742,,,,,,,0.0,203.0,,,,,25,13,16.25,12.6
22:25:23.754,0,-76,8,,1219794,45.819523,-73.499985,5364.97,57.58,1751595922,,,,51956.97,38.38,5291.11,1,0,0,0,0,,11742,,,,,,,0.0,101.0,,,,,22,18,16.25,12.6
22:25:27.221,0,-76,8,,1223227,45.819283,-73.499496,5383.68,41.19,1751595926,,,,51824.98,38.37,5310.0,1,0,0,0,0,,11742,,,,,,,0.0,336.0,,,,,22,17,16.25,12.6
22:25:30.612,0,-76,8,,1226660,45.818928,-73.499107,5408.01,65.74,1751595929,,,,51658.56,38.35,5333.87,1,0,0,0,0,,11742,,,,,,,0.0,274.0,,,,,24,17,16.25,12.6
22:25:34.111,0,-76,8,,1230093,45.818565,-73.498466,5430.49,64.66,1751595932,,,,51508.19,38.33,5355.5,1,0,0,0,0,,11742,,,,,,,0.0,68.0,,,,,22,16,16.25,12.6
22:25:37.524,0,-76,8,,1233526,45.81834,-73.49791,5450.56,46.9,1751595936,,,,51366.96,38.32,5375.86,1,0,0,0,0,,11742,,,,,,,0.0,40.0,,,,,21,17,16.25,12.6
22:25:40.919,0,-76,8,,1236959,45.818001,-73.497513,5477.35,55.96,1751595939,,,,51188.76,38.3,5401.61,1,0,0,0,0,,11742,,,,,,,0.0,276.0,,,,,23,15,16.25,12.6
22:25:44.405,0,-76,8,,1240392,45.817692,-73.496834,5502.13,67.31,1751595943,,,,51017.79,38.28,5426.39,1,0,0,0,0,,11742,,,,,,,0.0,72.0,,,,,22,14,16.25,12.6
22:25:47.788,0,-76,8,,1243825,45.81749,-73.496315,5522.98,40.84,1751595946,,,,50876.99,38.26,5446.84,1,0,0,0,0,,11742,,,,,,,0.0,107.0,,,,,23,11,16.25,12.6
22:25:51.220,0,-76,8,,1247258,45.81712,-73.49585,5546.73,71.2,1751595950,,,,50715.06,38.24,5470.42,1,0,0,0,0,,11742,,,,,,,0.0,250.0,,,,,23,12,16.25,12.6
22:25:54.652,0,-76,8,,1250691,45.816822,-73.495224,5573.99,57.53,1751595953,,,,50533.13,38.22,5496.99,1,0,0,0,0,,11742,,,,,,,0.0,74.0,,,,,23,13,16.25,12.6
22:25:58.140,0,-76,8,,1254124,45.816521,-73.494759,5600.12,53.45,1751595956,,,,50355.64,38.19,5522.98,1,0,0,0,0,,11742,,,,,,,0.0,6.0,,,,,21,16,16.25,12.6
22:26:01.518,0,-76,8,,1257557,45.816128,-73.494232,5627.54,75.51,1751595960,,,,50188.12,38.17,5547.58,1,0,0,0,0,,11742,,,,,,,0.0,172.0,,,,,22,15,16.25,12.6
22:26:04.990,0,-76,8,,1260990,45.815796,-73.493515,5647.63,52.23,1751595963,,,,50050.93,38.15,5567.78,1,0,0,0,0,,11742,,,,,,,0.0,84.0,,,,,22,8,16.25,12.6
22:26:08.410,0,-76,8,,1264423,45.815575,-73.493034,5669.81,52.91,1751595967,,,,49897.08,38.12,5590.48,1,0,0,0,0,,11742,,,,,,,0.0,90.0,,,,,22,12,16.25,12.6
22:26:11.818,0,-76,8,,1267856,45.815205,-73.492569,5695.63,61.99,1751595970,,,,49725.25,38.1,5615.9,1,0,0,0,0,,11742,,,,,,,0.0,203.0,,,,,22,13,16.25,12.6
22:26:15.301,0,-76,8,,1271289,45.814957,-73.491859,5722.12,56.27,1751595974,,,,49554.54,38.09,5641.23,1,0,0,0,0,,11742,,,,,,,0.0,17.0,,,,,23,13,16.25,12.6
22:26:18.699,0,-76,8,,1274722,45.814697,-73.491417,5748.16,56.62,1751595977,,,,49376.9,38.07,5667.66,1,0,0,0,0,,11742,,,,,,,0.0,347.0,,,,,22,13,16.25,12.6
22:26:22.113,0,-76,8,,1278155,45.814331,-73.490768,5775.6,65.91,1751595980,,,,49215.41,38.04,5691.76,1,0,0,0,0,,11742,,,,,,,0.0,198.0,,,,,23,16,16.25,12.6
22:26:25.580,0,-76,8,,1281588,45.814152,-73.490105,5797.41,50.85,1751595984,,,,49058.94,38.02,5715.16,1,0,0,0,0,,11742,,,,,,,0.0,58.0,,,,,22,12,16.25,12.6
22:26:28.982,0,-76,8,,1285021,45.813946,-73.489601,5816.94,48.75,1751595987,,,,48930.77,37.99,5734.38,1,0,0,0,0,,11742,,,,,,,0.0,305.0,,,,,23,12,16.25,12.6
22:26:32.465,0,-76,8,,1288454,45.813599,-73.489044,5843.44,72.79,1751595991,,,,48758.29,37.98,5760.31,1,0,0,0,0,,11742,,,,,,,0.0,254.0,,,,,22,12,16.25,12.6
22:26:35.848,0,-76,8,,1291887,45.813301,-73.488327,5870.3,58.55,1751595994,,,,48578.57,37.95,5787.4,1,0,0,0,0,,11742,,,,,,,0.0,181.0,,,,,23,13,16.25,12.6
22:26:37.731,0,-75,2,,1293770,45.813202,-73.487999,5886.67,55.58,1751595996,,,,48484.73,37.94,5801.58,1,0,0,0,0,,11742,,,,,,,0.0,28.0,,,,,27,14,16.24,12.6
22:26:39.613,0,-73,2,,1295652,45.813076,-73.487671,5896.79,43.74,1751595998,,,,48412.78,37.93,5812.47,1,0,0,0,0,,11742,,,,,,,0.0,213.0,,,,,24,14,16.24,12.6
22:26:43.080,0,-73,2,,1299085,45.812759,-73.487152,5919.42,75.87,1751596001,,,,48254.34,37.92,5836.49,1,0,0,0,0,,11742,,,,,,,0.0,133.0,,,,,23,19,16.25,12.6
22:26:46.482,0,-73,2,,1302518,45.812561,-73.486435,5943.35,51.45,1751596005,,,,48093.9,37.9,5860.88,1,0,0,0,0,,11742,,,,,,,0.0,124.0,,,,,24,12,16.25,12.6
22:26:49.912,0,-73,2,,1305951,45.812366,-73.485893,5967.71,48.9,1751596008,,,,47954.58,37.86,5882.11,1,0,0,0,0,,11742,,,,,,,0.0,285.0,,,,,22,14,16.24,12.6
22:26:53.372,0,-73,2,,1309384,45.812023,-73.485367,5989.86,68.45,1751596012,,,,47804.29,37.85,5905.07,1,0,0,0,0,,11742,,,,,,,0.0,323.0,,,,,21,15,16.25,12.6
22:26:55.240,0,-82,0,,1311267,45.811829,-73.484993,6001.56,73.54,1751596014,,,,47726.4,37.84,5916.99,1,0,0,0,0,,11742,,,,,,,0.0,347.0,,,,,22,10,16.24,12.6
22:26:57.100,0,-76,1,,1313150,45.811646,-73.484596,6012.57,72.93,1751596015,,,,47662.9,37.83,5926.72,1,0,0,0,0,,11742,,,,,,,0.0,283.0,,,,,26,13,16.24,12.6
22:27:00.595,0,-76,1,,1316583,45.811382,-73.483841,6037.1,64.73,1751596019,,,,47500.16,37.81,5951.71,1,0,0,0,0,,11742,,,,,,,0.0,42.0,,,,,22,14,16.24,12.6
22:27:03.978,0,-76,1,,1320016,45.811115,-73.483315,6060.61,37.28,1751596022,,,,47352.62,37.79,5974.42,1,0,0,0,0,,11742,,,,,,,0.0,158.0,,,,,22,12,16.24,12.6
22:27:07.411,0,-76,1,,1323449,45.810913,-73.48278,6083.73,64.85,1751596026,,,,47210.98,37.78,5996.28,1,0,0,0,0,,11742,,,,,,,0.0,229.0,,,,,28,15,16.24,12.6
22:27:10.874,0,-76,1,,1326882,45.810764,-73.482018,6105.65,64.42,1751596029,,,,47059.3,37.75,6019.75,1,0,0,0,0,,11742,,,,,,,0.0,66.0,,,,,25,12,16.24,12.6
22:27:14.272,0,-76,1,,1330315,45.810604,-73.481316,6129.78,48.29,1751596033,,,,46908.64,37.73,6043.12,1,0,0,0,0,,11742,,,,,,,0.0,134.0,,,,,22,13,16.24,12.6
22:27:15.798,0,-92,-8,,1331835,45.810555,-73.481087,6140.89,42.58,1751596034,,,,46849.75,37.72,6052.27,1,0,0,0,0,,11742,,,,,,,0.0,175.0,,,,,22,12,16.24,12.6
22:27:17.331,0,-91,-5,,1333355,45.810452,-73.480911,6151.17,51.53,1751596036,,,,46790.61,37.71,6061.47,1,0,0,0,0,,11742,,,,,,,0.0,176.0,,,,,21,15,16.24,12.6
22:27:18.863,0,-90,-5,,1334875,45.810329,-73.480652,6161.41,57.62,1751596037,,,,46709.5,37.69,6074.1,1,0,0,0,0,,11742,,,,,,,0.0,257.0,,,,,23,12,16.24,12.6
22:27:22.271,0,-90,-5,,1338308,45.810196,-73.479881,6185.17,66.18,1751596041,,,,46562.12,37.67,6097.1,1,0,0,0,0,,11742,,,,,,,0.0,180.0,,,,,22,18,16.24,12.6
22:27:25.736,0,-90,-5,,1341741,45.810055,-73.479248,6208.58,51.6,1751596044,,,,46422.41,37.64,6118.96,1,0,0,0,0,,11742,,,,,,,0.0,112.0,,,,,22,13,16.24,12.6
22:27:29.155,0,-90,-5,,1345174,45.809875,-73.478691,6231.24,51.41,1751596047,,,,46276.63,37.61,6141.82,1,0,0,0,0,,11742,,,,,,,0.0,267.0,,,,,22,14,16.24,12.6
22:27:32.569,0,-90,-5,,1348607,45.809555,-73.478073,6255.0,77.88,1751596051,,,,46124.46,37.59,6165.75,1,0,0,0,0,,11742,,,,,,,0.0,87.0,,,,,21,13,16.24,12.6
22:27:36.036,0,-90,-5,,1352040,45.809227,-73.477409,6282.37,59.98,1751596054,,,,45949.72,37.55,6193.31,1,0,0,0,0,,11742,,,,,,,0.0,225.0,,,,,23,15,16.24,12.6
22:27:39.456,0,-90,-5,,1355473,45.80883,-73.4767,6300.23,74.1,1751596058,,,,45843.16,37.53,6210.15,1,0,0,0,0,,11742,,,,,,,0.0,210.0,,,,,22,13,16.24,12.6
22:27:41.318,0,-82,-5,,1357356,45.808689,-73.476349,6314.14,59.41,1751596060,,,,45758.92,37.52,6223.5,1,0,0,0,0,,11742,,,,,,,0.0,18.0,,,,,22,11,16.24,12.6
22:27:43.261,0,-75,3,,1359239,45.808575,-73.475914,6326.02,66.18,1751596062,,,,45683.46,37.5,6235.46,1,0,0,0,0,,11742,,,,,,,0.0,209.0,,,,,22,15,16.24,12.6
22:27:45.139,0,-77,0,,1361122,45.808491,-73.475555,6335.62,49.92,1751596063,,,,45618.92,37.49,6245.71,1,0,0,0,0,,11742,,,,,,,0.0,8.0,,,,,18,18,16.24,12.6
22:27:47.008,0,-74,2,,1363004,45.808372,-73.475266,6344.94,48.27,1751596065,,,,45562.3,37.47,6254.71,1,0,0,0,0,,11742,,,,,,,0.0,280.0,,,,,25,12,16.24,12.6
22:27:50.399,0,-74,2,,1366437,45.808174,-73.474632,6368.74,53.56,1751596069,,,,45413.06,37.45,6278.47,1,0,0,0,0,,11742,,,,,,,0.0,334.0,,,,,19,14,16.24,12.6
22:27:52.337,0,-79,-1,,1368320,45.808075,-73.474388,6383.4,45.77,1751596071,,,,45316.7,37.42,6293.85,1,0,0,0,0,,11742,,,,,,,0.0,57.0,,,,,20,15,16.24,12.6
22:27:55.737,0,-79,-1,,1371753,45.807743,-73.473846,6412.46,71.02,1751596074,,,,45145.08,37.4,6321.31,1,0,0,0,0,,11742,,,,,,,0.0,32.0,,,,,24,15,16.24,12.6
22:27:59.149,0,-79,-1,,1375186,45.807461,-73.47303,6436.07,59.63,1751596077,,,,44999.59,37.37,6344.65,1,0,0,0,0,,11742,,,,,,,0.0,343.0,,,,,22,14,16.24,12.6
22:28:02.633,0,-79,-1,,1378619,45.807301,-73.472435,6460.03,47.98,1751596081,,,,44852.63,37.35,6368.28,1,0,0,0,0,,11742,,,,,,,0.0,99.0,,,,,22,13,16.24,12.6
22:28:06.018,0,-79,-1,,1382052,45.807022,-73.471939,6482.91,67.92,1751596084,,,,44712.99,37.34,6390.8,1,0,0,0,0,,11742,,,,,,,0.0,322.0,,,,,25,13,16.24,12.6
22:28:09.448,0,-79,-1,,1385485,45.806747,-73.471184,6505.4,65.62,1751596088,,,,44573.74,37.31,6413.31,1,0,0,0,0,,11742,,,,,,,0.0,144.0,,,,,22,13,16.24,12.6
22:28:12.924,0,-79,-1,,1388918,45.806602,-73.47052,6525.03,48.82,1751596091,,,,44449.87,37.27,6433.39,1,0,0,0,0,,11742,,,,,,,0.0,82.0,,,,,22,14,16.24,12.6
22:28:16.313,0,-79,-1,,1392351,45.806412,-73.469955,6554.14,65.64,1751596095,,,,44278.09,37.25,6461.3,1,0,0,0,0,,11742,,,,,,,0.0,23.0,,,,,22,15,16.24,12.6
22:28:19.785,0,-79,-1,,1395784,45.806103,-73.4692,6584.12,69.05,1751596098,,,,44107.08,37.23,6489.18,1,0,0,0,0,,11742,,,,,,,0.0,74.0,,,,,16,15,16.24,12.6
22:28:23.190,0,-79,-1,,1399217,45.805973,-73.468521,6612.65,50.39,1751596102,,,,43929.39,37.21,6518.24,1,0,0,0,0,,11742,,,,,,,0.0,25.0,,,,,23,13,16.24,12.6
22:28:26.619,0,-79,-1,,1402650,45.805775,-73.468048,6636.6,50.44,1751596105,,,,43781.21,37.18,6542.54,1,0,0,0,0,,11742,,,,,,,0.0,81.0,,,,,26,13,16.24,12.6
22:28:30.081,0,-79,-1,,1406083,45.805473,-73.467384,6660.28,75.75,1751596108,,,,43646.4,37.15,6564.71,1,0,0,0,0,,11742,,,,,,,0.0,56.0,,,,,23,10,16.24,12.6
22:28:33.485,0,-79,-1,,1409516,45.805237,-73.466621,6680.36,61.4,1751596112,,,,43519.27,37.12,6585.67,1,0,0,0,0,,11742,,,,,,,0.0,101.0,,,,,23,14,16.24,12.6
22:28:36.912,0,-79,-1,,1412949,45.805115,-73.466003,6705.17,43.81,1751596115,,,,43387.45,37.1,6607.45,1,0,0,0,0,,11742,,,,,,,0.0,20.0,,,,,22,18,16.24,12.6
22:28:40.377,0,-79,-1,,1416382,45.804821,-73.465469,6728.8,66.76,1751596119,,,,43241.29,37.08,6631.67,1,0,0,0,0,,11742,,,,,,,0.0,32.0,,,,,23,12,16.24,12.6
22:28:43.779,0,-79,-1,,1419815,45.804482,-73.46479,6750.59,67.07,1751596122,,,,43113.23,37.05,6652.94,1,0,0,0,0,,11742,,,,,,,0.0,205.0,,,,,21,13,16.24,12.6
22:28:47.263,0,-79,-1,,1423248,45.804249,-73.464043,6773.25,56.91,1751596126,,,,42967.84,37.02,6677.15,1,0,0,0,0,,11742,,,,,,,0.0,89.0,,,,,22,15,16.24,12.6
22:28:48.791,0,-79,0,,1424768,45.804165,-73.463837,6787.43,47.37,1751596127,,,,42891.43,37.02,6689.9,1,0,0,0,0,,11742,,,,,,,0.0,69.0,,,,,26,13,16.23,12.6
22:28:52.188,0,-79,0,,1428201,45.803944,-73.463402,6807.46,42.03,1751596130,,,,42774.45,36.98,6709.46,1,0,0,0,0,,11742,,,,,,,0.0,354.0,,,,,22,13,16.24,12.6
22:28:54.052,0,-80,1,,1430084,45.803787,-73.463181,6816.27,54.26,1751596132,,,,42718.73,36.96,6718.79,1,0,0,0,0,,11742,,,,,,,0.0,313.0,,,,,22,13,16.24,12.6
22:28:57.480,0,-80,1,,1433517,45.803463,-73.462677,6836.78,64.18,1751596136,,,,42599.89,36.93,6738.72,1,0,0,0,0,,11742,,,,,,,0.0,307.0,,,,,26,13,16.24,12.6
22:29:00.957,0,-80,1,,1436950,45.803169,-73.461983,6864.7,58.05,1751596139,,,,42437.95,36.92,6765.96,1,0,0,0,0,,11742,,,,,,,0.0,263.0,,,,,27,15,16.24,12.6
22:29:04.357,0,-80,1,,1440383,45.802982,-73.461296,6892.03,59.63,1751596143,,,,42282.28,36.89,6792.22,1,0,0,0,0,,11742,,,,,,,0.0,36.0,,,,,22,14,16.24,12.6
22:29:06.228,0,-75,2,,1442265,45.802788,-73.460976,6906.99,69.88,1751596145,,,,42189.45,36.89,6807.92,1,0,0,0,0,,11742,,,,,,,0.0,234.0,,,,,22,11,16.23,12.6
22:29:09.717,0,-75,2,,1445698,45.802452,-73.460518,6936.88,49.51,1751596148,,,,42019.27,36.87,6836.77,1,0,0,0,0,,11742,,,,,,,0.0,221.0,,,,,23,13,16.24,12.6
22:29:13.098,0,-75,2,,1449131,45.802059,-73.459831,6963.47,71.4,1751596151,,,,41846.97,36.83,6866.07,1,0,0,0,0,,11742,,,,,,,0.0,185.0,,,,,28,12,16.24,12.6
22:29:14.977,0,-82,0,,1451014,45.801868,-73.459541,6980.42,45.46,1751596153,,,,41765.31,36.82,6880.0,1,0,0,0,0,,11742,,,,,,,0.0,94.0,,,,,23,13,16.23,12.6
22:29:16.497,0,-83,2,,1452534,45.801807,-73.459305,6991.82,57.81,1751596155,,,,41692.97,36.81,6892.35,1,0,0,0,0,,11742,,,,,,,0.0,283.0,,,,,22,14,16.23,12.6
22:29:19.931,0,-83,2,,1455967,45.801567,-73.458786,7021.92,31.74,1751596158,,,,41523.52,36.78,6921.35,1,0,0,0,0,,11742,,,,,,,0.0,277.0,,,,,23,13,16.24,12.6
22:29:21.451,0,-91,-2,,1457487,45.801544,-73.458588,7030.43,53.14,1751596160,,,,41468.26,36.76,6930.83,1,0,0,0,0,,11742,,,,,,,0.0,22.0,,,,,22,12,16.23,12.6
22:29:24.936,0,-91,-2,,1460920,45.80138,-73.457886,7050.45,54.48,1751596163,,,,41355.78,36.73,6950.15,1,0,0,0,0,,11742,,,,,,,0.0,102.0,,,,,23,16,16.24,12.6
22:29:26.465,0,-79,0,,1462440,45.801296,-73.457573,7061.34,65.2,1751596165,,,,41297.49,36.72,6960.19,1,0,0,0,0,,11742,,,,,,,0.0,129.0,,,,,22,12,16.23,12.6
22:29:27.924,0,-80,0,,1463960,45.801178,-73.45726,7072.0,76.97,1751596166,,,,41241.06,36.69,6969.91,1,0,0,0,0,,11742,,,,,,,0.0,95.0,,,,,31,15,16.23,12.6
22:29:31.406,0,-80,0,,1467393,45.800827,-73.45668,7097.09,47.6,1751596170,,,,41095.39,36.67,6995.05,1,0,0,0,0,,11742,,,,,,,0.0,175.0,,,,,24,12,16.24,12.6
22:29:34.801,0,-80,0,,1470826,45.800598,-73.456223,7120.17,47.57,1751596173,,,,40962.99,36.64,7017.98,1,0,0,0,0,,11742,,,,,,,0.0,0.0,,,,,22,13,16.24,12.6
22:29:38.274,0,-80,0,,1474259,45.800411,-73.455566,7147.36,68.11,1751596177,,,,40801.51,36.61,7046.01,1,0,0,0,0,,11742,,,,,,,0.0,73.0,,,,,22,15,16.24,12.6
22:29:41.725,0,-80,0,,1477692,45.800072,-73.454865,7169.87,64.22,1751596180,,,,40679.15,36.58,7067.31,1,0,0,0,0,,11742,,,,,,,0.0,208.0,,,,,25,13,16.24,12.6
22:29:45.119,0,-80,0,,1481125,45.799797,-73.454346,7195.54,59.73,1751596183,,,,40524.95,36.55,7094.24,1,0,0,0,0,,11742,,,,,,,0.0,169.0,,,,,23,13,16.24,12.6
22:29:46.665,0,-90,-7,,1482645,45.799725,-73.454002,7207.71,63.79,1751596185,,,,40462.29,36.54,7105.2,1,0,0,0,0,,11742,,,,,,,0.0,153.0,,,,,20,13,16.23,12.6
22:29:48.191,0,-86,-3,,1484165,45.799664,-73.453682,7217.79,51.09,1751596186,,,,40409.58,36.52,7114.43,1,0,0,0,0,,11742,,,,,,,0.0,113.0,,,,,23,14,16.23,12.6
22:29:49.707,0,-80,2,,1485685,45.799622,-73.453461,7225.58,45.05,1751596188,,,,40362.01,36.51,7122.77,1,0,0,0,0,,11742,,,,,,,0.0,76.0,,,,,24,16,16.23,12.6
22:29:53.093,0,-80,2,,1489118,45.799477,-73.452942,7246.63,45.26,1751596191,,,,40239.92,36.49,7144.22,1,0,0,0,0,,11742,,,,,,,0.0,335.0,,,,,21,9,16.23,12.6
22:29:54.624,0,-95,-6,,1490638,45.799366,-73.452728,7260.49,48.55,1751596193,,,,40165.19,36.47,7157.37,1,0,0,0,0,,11742,,,,,,,0.0,302.0,,,,,21,13,16.23,12.6
22:29:58.035,0,-95,-6,,1494071,45.799164,-73.452156,7295.03,52.43,1751596196,,,,39971.91,36.44,7191.48,1,0,0,0,0,,11742,,,,,,,0.0,142.0,,,,,22,14,16.23,12.6
22:29:59.555,0,-81,-1,,1495591,45.79903,-73.451927,7311.74,50.2,1751596198,,,,39875.76,36.43,7208.49,1,0,0,0,0,,11742,,,,,,,0.0,42.0,,,,,25,13,16.23,12.6
22:30:03.048,0,-81,-1,,1499024,45.798916,-73.451309,7340.11,62.63,1751596201,,,,39718.59,36.39,7236.38,1,0,0,0,0,,11742,,,,,,,0.0,146.0,,,,,22,13,16.23,12.6
22:30:06.438,0,-81,-1,,1502457,45.798634,-73.4506,7363.96,76.88,1751596205,,,,39589.12,36.34,7259.42,1,0,0,0,0,,11742,,,,,,,0.0,285.0,,,,,26,12,16.23,12.6
22:30:09.856,0,-81,-1,,1505890,45.798313,-73.449974,7387.86,54.19,1751596208,,,,39450.91,36.31,7284.08,1,0,0,0,0,,11742,,,,,,,0.0,211.0,,,,,22,15,16.23,12.6
22:30:11.364,0,-76,0,,1507410,45.798145,-73.449776,7398.38,54.36,1751596210,,,,39389.6,36.29,7295.05,1,0,0,0,0,,11742,,,,,,,0.0,256.0,,,,,22,14,16.23,12.6
22:30:16.327,0,-83,3,,1512363,45.797855,-73.448906,7442.13,66.22,1751596215,,,,39158.16,36.25,7336.55,1,0,0,0,0,,11742,,,,,,,0.0,89.0,,,,,22,13,16.23,12.6
